$GNGGA,130056.50,5213.25663648,N,02100.52009731,E,4,10,2.3,116.116,M,31.304,M,1.5,0350*59
$GNGGA,130056.56,5213.25663489,N,02100.52007658,E,0,10,2.3,116.074,M,31.304,M,1.6,0350*XD
$GNGGA,130056.61,5213.25663427,N,02100.52005845,E,0,10,2.3,116.042,M,31.304,M,0.6,0350*XD
$GNGGA,130056.67,5213.25663691,N,02100.52003255,E,0,10,2.3,116.042,M,31.304,M,0.7,0350*XD
$GNGGA,130056.72,5213.25664292,N,02100.52001276,E,0,10,2.3,116.089,M,31.304,M,0.7,0350*XD
$GNGGA,130056.78,5213.25665700,N,02100.51999223,E,0,10,2.3,116.089,M,31.304,M,0.8,0350*XD
$GNGGA,130056.83,5213.25666104,N,02100.51996662,E,0,10,2.3,116.075,M,31.304,M,0.8,0350*XD
$GNGGA,130056.89,5213.25665974,N,02100.51992909,E,0,10,2.3,116.075,M,31.304,M,0.9,0350*XD
$GNGGA,130056.94,5213.25666430,N,02100.51989917,E,0,10,2.3,116.062,M,31.304,M,0.9,0350*XD
$GNGGA,130057.00,5213.25667148,N,02100.51986369,E,4,10,2.3,116.099,M,31.304,M,1.0,0350*59
$GNGGA,130057.17,5213.25666488,N,02100.51979289,E,0,10,2.3,116.122,M,31.304,M,1.2,0350*XD
$GNGGA,130057.33,5213.25666414,N,02100.51968693,E,0,10,2.3,116.119,M,31.304,M,1.3,0350*XD
$GNGGA,130057.50,5213.25664524,N,02100.51961795,E,4,10,2.3,116.083,M,31.304,M,1.5,0350*51
$GNGGA,130057.53,5213.25664913,N,02100.51959594,E,0,10,2.3,116.075,M,31.304,M,1.5,0350*XD
$GNGGA,130057.57,5213.25665431,N,02100.51956660,E,0,10,2.3,116.075,M,31.304,M,1.6,0350*XD
$GNGGA,130057.60,5213.25665820,N,02100.51954460,E,4,10,2.3,116.067,M,31.304,M,1.6,0350*5C
$GNGGA,130057.63,5213.25665396,N,02100.51952059,E,0,10,2.3,116.050,M,31.304,M,1.6,0350*XD
$GNGGA,130057.67,5213.25664830,N,02100.51948858,E,0,10,2.3,116.050,M,31.304,M,1.7,0350*XD
$GNGGA,130057.70,5213.25664406,N,02100.51946457,E,4,10,2.3,116.033,M,31.304,M,0.7,0350*52
$GNGGA,130057.73,5213.25664375,N,02100.51944722,E,0,10,2.3,116.054,M,31.304,M,0.7,0350*XD
$GNGGA,130057.77,5213.25664334,N,02100.51942410,E,0,10,2.3,116.054,M,31.304,M,0.8,0350*XD
$GNGGA,130057.80,5213.25664303,N,02100.51940675,E,4,10,2.3,116.076,M,31.304,M,0.8,0350*55
$GNGGA,130057.83,5213.25664492,N,02100.51939246,E,0,10,2.3,116.069,M,31.304,M,0.8,0350*XD
$GNGGA,130057.87,5213.25664743,N,02100.51937342,E,0,10,2.3,116.069,M,31.304,M,0.9,0350*XD
$GNGGA,130057.90,5213.25664932,N,02100.51935913,E,4,10,2.3,116.062,M,31.304,M,0.9,0350*55
$GNGGA,130057.93,5213.25665267,N,02100.51934910,E,0,10,2.3,116.099,M,31.304,M,0.9,0350*XD
$GNGGA,130057.97,5213.25665713,N,02100.51933573,E,0,10,2.3,116.099,M,31.304,M,1.0,0350*XD
$GNGGA,130058.00,5213.25666048,N,02100.51932570,E,4,10,2.3,116.136,M,31.304,M,1.0,0350*53
$GNGGA,130058.05,5213.25665716,N,02100.51930017,E,0,10,2.3,116.144,M,31.304,M,1.1,0350*XD
$GNGGA,130058.10,5213.25665384,N,02100.51927465,E,4,10,2.3,116.152,M,31.304,M,1.1,0350*50
$GNGGA,130058.15,5213.25665901,N,02100.51924186,E,0,10,2.3,116.155,M,31.304,M,1.2,0350*XD
$GNGGA,130058.20,5213.25666419,N,02100.51920907,E,4,10,2.3,116.158,M,31.304,M,1.2,0350*54
$GNGGA,130058.25,5213.25666735,N,02100.51918060,E,0,10,2.3,116.168,M,31.304,M,1.3,0350*XD
$GNGGA,130058.30,5213.25667051,N,02100.51915213,E,4,10,2.3,116.179,M,31.304,M,1.3,0350*56
$GNGGA,130058.35,5213.25666494,N,02100.51911632,E,0,10,2.3,116.136,M,31.304,M,1.3,0350*XD
$GNGGA,130058.40,5213.25665937,N,02100.51908050,E,4,10,2.3,116.094,M,31.304,M,1.4,0350*56
$GNGGA,130058.45,5213.25665952,N,02100.51905771,E,0,10,2.3,116.094,M,31.304,M,1.4,0350*XD
$GNGGA,130058.50,5213.25665967,N,02100.51903492,E,4,10,2.3,116.094,M,31.304,M,1.5,0350*52
$GNGGA,130058.53,5213.25666206,N,02100.51902359,E,0,10,2.3,116.130,M,31.304,M,1.5,0350*XD
$GNGGA,130058.57,5213.25666525,N,02100.51900847,E,0,10,2.3,116.130,M,31.304,M,1.6,0350*XD
$GNGGA,130058.60,5213.25666764,N,02100.51899714,E,4,10,2.3,116.165,M,31.304,M,1.6,0350*5C
$GNGGA,130058.63,5213.25666044,N,02100.51898258,E,0,10,2.3,116.181,M,31.304,M,1.6,0350*XD
$GNGGA,130058.67,5213.25665083,N,02100.51896317,E,0,10,2.3,116.181,M,31.304,M,1.7,0350*XD
$GNGGA,130058.70,5213.25664363,N,02100.51894861,E,4,10,2.3,116.197,M,31.304,M,0.7,0350*51
$GNGGA,130058.73,5213.25664203,N,02100.51893257,E,0,10,2.3,116.190,M,31.304,M,0.7,0350*XD
$GNGGA,130058.77,5213.25663991,N,02100.51891119,E,0,10,2.3,116.190,M,31.304,M,0.8,0350*XD
$GNGGA,130058.80,5213.25663831,N,02100.51889516,E,4,10,2.3,116.183,M,31.304,M,0.8,0350*5E
$GNGGA,130058.83,5213.25663885,N,02100.51887918,E,0,10,2.3,116.156,M,31.304,M,0.8,0350*XD
$GNGGA,130058.87,5213.25663956,N,02100.51885786,E,0,10,2.3,116.156,M,31.304,M,0.9,0350*XD
$GNGGA,130058.90,5213.25664010,N,02100.51884188,E,4,10,2.3,116.128,M,31.304,M,0.9,0350*5D
$GNGGA,130058.93,5213.25664909,N,02100.51882917,E,0,10,2.3,116.148,M,31.304,M,0.9,0350*XD
$GNGGA,130058.97,5213.25666107,N,02100.51881221,E,0,10,2.3,116.148,M,31.304,M,1.0,0350*XD
$GNGGA,130059.00,5213.25667005,N,02100.51879950,E,4,10,2.3,116.168,M,31.304,M,1.0,0350*51
$GNGGA,130059.04,5213.25667322,N,02100.51878431,E,0,10,2.3,116.162,M,31.304,M,1.0,0350*XD
$GNGGA,130059.08,5213.25667639,N,02100.51876912,E,0,10,2.3,116.162,M,31.304,M,1.1,0350*XD
$GNGGA,130059.12,5213.25667666,N,02100.51874844,E,0,10,2.3,116.138,M,31.304,M,1.1,0350*XD
$GNGGA,130059.17,5213.25667335,N,02100.51871571,E,0,10,2.3,116.138,M,31.304,M,1.2,0350*XD
$GNGGA,130059.21,5213.25667012,N,02100.51868885,E,0,10,2.3,116.122,M,31.304,M,1.2,0350*XD
$GNGGA,130059.25,5213.25666518,N,02100.51865998,E,0,10,2.3,116.122,M,31.304,M,1.3,0350*XD
$GNGGA,130059.29,5213.25666023,N,02100.51863111,E,0,10,2.3,116.122,M,31.304,M,1.3,0350*XD
$GNGGA,130059.33,5213.25666055,N,02100.51861275,E,0,10,2.3,116.134,M,31.304,M,1.3,0350*XD
$GNGGA,130059.38,5213.25666314,N,02100.51859419,E,0,10,2.3,116.134,M,31.304,M,1.4,0350*XD
$GNGGA,130059.42,5213.25666270,N,02100.51857607,E,0,10,2.3,116.130,M,31.304,M,1.4,0350*XD
$GNGGA,130059.46,5213.25665973,N,02100.51855468,E,0,10,2.3,116.130,M,31.304,M,1.5,0350*XD
$GNGGA,130059.50,5213.25665677,N,02100.51853328,E,4,10,2.3,116.116,M,31.304,M,1.5,0350*54
$GNGGA,130059.53,5213.25665880,N,02100.51851149,E,0,10,2.3,116.146,M,31.304,M,1.5,0350*XD
$GNGGA,130059.56,5213.25666083,N,02100.51848969,E,0,10,2.3,116.146,M,31.304,M,1.6,0350*XD
$GNGGA,130059.59,5213.25666286,N,02100.51846789,E,0,10,2.3,116.146,M,31.304,M,1.6,0350*XD
$GNGGA,130059.62,5213.25666634,N,02100.51845178,E,0,10,2.3,116.200,M,31.304,M,0.6,0350*XD
$GNGGA,130059.65,5213.25667054,N,02100.51843849,E,0,10,2.3,116.200,M,31.304,M,0.7,0350*XD
$GNGGA,130059.68,5213.25667473,N,02100.51842521,E,0,10,2.3,116.200,M,31.304,M,0.7,0350*XD
$GNGGA,130059.71,5213.25667799,N,02100.51841210,E,0,10,2.3,116.232,M,31.304,M,0.7,0350*XD
$GNGGA,130059.74,5213.25667935,N,02100.51839930,E,0,10,2.3,116.232,M,31.304,M,0.7,0350*XD
$GNGGA,130059.76,5213.25668026,N,02100.51839078,E,0,10,2.3,116.232,M,31.304,M,0.8,0350*XD
$GNGGA,130059.79,5213.25668163,N,02100.51837798,E,0,10,2.3,116.232,M,31.304,M,0.8,0350*XD
$GNGGA,130059.82,5213.25668347,N,02100.51836459,E,0,10,2.3,116.261,M,31.304,M,0.8,0350*XD
$GNGGA,130059.85,5213.25668554,N,02100.51835089,E,0,10,2.3,116.261,M,31.304,M,0.8,0350*XD
$GNGGA,130059.88,5213.25668762,N,02100.51833718,E,0,10,2.3,116.261,M,31.304,M,0.9,0350*XD
$GNGGA,130059.91,5213.25668906,N,02100.51832217,E,0,10,2.3,116.232,M,31.304,M,0.9,0350*XD
$GNGGA,130059.94,5213.25668920,N,02100.51830453,E,0,10,2.3,116.232,M,31.304,M,0.9,0350*XD
$GNGGA,130059.97,5213.25668934,N,02100.51828688,E,0,10,2.3,116.232,M,31.304,M,1.0,0350*XD
$GNGGA,130100.00,5213.25668948,N,02100.51826924,E,4,10,2.3,116.181,M,31.304,M,1.0,0350*5D
$GNGGA,130100.04,5213.25668918,N,02100.51825014,E,0,10,2.3,116.148,M,31.304,M,1.0,0350*XD
$GNGGA,130100.08,5213.25668887,N,02100.51823105,E,0,10,2.3,116.148,M,31.304,M,1.1,0350*XD
$GNGGA,130100.12,5213.25668656,N,02100.51821241,E,0,10,2.3,116.137,M,31.304,M,1.1,0350*XD
$GNGGA,130100.17,5213.25668117,N,02100.51818967,E,0,10,2.3,116.137,M,31.304,M,1.2,0350*XD
$GNGGA,130100.21,5213.25667647,N,02100.51816856,E,0,10,2.3,116.132,M,31.304,M,1.2,0350*XD
$GNGGA,130100.25,5213.25667059,N,02100.51813868,E,0,10,2.3,116.132,M,31.304,M,1.3,0350*XD
$GNGGA,130100.29,5213.25666471,N,02100.51810881,E,0,10,2.3,116.132,M,31.304,M,1.3,0350*XD
$GNGGA,130100.33,5213.25666996,N,02100.51810435,E,0,10,2.3,116.161,M,31.304,M,1.3,0350*XD
$GNGGA,130100.38,5213.25668116,N,02100.51810936,E,0,10,2.3,116.161,M,31.304,M,1.4,0350*XD
$GNGGA,130100.42,5213.25668678,N,02100.51809646,E,0,10,2.3,116.175,M,31.304,M,1.4,0350*XD
$GNGGA,130100.46,5213.25668905,N,02100.51806665,E,0,10,2.3,116.175,M,31.304,M,1.5,0350*XD
$GNGGA,130100.50,5213.25669133,N,02100.51803683,E,4,10,2.3,116.133,M,31.304,M,1.5,0350*54
$GNGGA,130100.52,5213.25669224,N,02100.51802990,E,0,10,2.3,116.147,M,31.304,M,1.5,0350*XD
$GNGGA,130100.55,5213.25669359,N,02100.51801950,E,0,10,2.3,116.147,M,31.304,M,1.6,0350*XD
$GNGGA,130100.58,5213.25669495,N,02100.51800910,E,0,10,2.3,116.147,M,31.304,M,1.6,0350*XD
$GNGGA,130100.60,5213.25669586,N,02100.51800217,E,4,10,2.3,116.161,M,31.304,M,1.6,0350*53
$GNGGA,130100.62,5213.25669982,N,02100.51798352,E,0,09,2.5,116.164,M,31.304,M,1.6,0350*XD
$GNGGA,130100.65,5213.25670577,N,02100.51795554,E,0,09,2.5,116.164,M,31.304,M,1.7,0350*XD
$GNGGA,130100.68,5213.25671171,N,02100.51792756,E,0,09,2.5,116.164,M,31.304,M,1.7,0350*XD
$GNGGA,130100.70,5213.25671567,N,02100.51790891,E,4,09,2.7,116.167,M,31.304,M,0.7,0350*5C
$GNGGA,130100.72,5213.25671656,N,02100.51790122,E,0,09,2.7,116.162,M,31.304,M,0.7,0350*XD
$GNGGA,130100.75,5213.25671789,N,02100.51788968,E,0,09,2.7,116.162,M,31.304,M,0.8,0350*XD
$GNGGA,130100.78,5213.25671923,N,02100.51787813,E,0,09,2.7,116.162,M,31.304,M,0.8,0350*XD
$GNGGA,130100.80,5213.25672012,N,02100.51787044,E,4,09,2.7,116.156,M,31.304,M,0.8,0350*5C
$GNGGA,130100.82,5213.25671442,N,02100.51786374,E,0,09,2.7,116.172,M,31.304,M,0.8,0350*XD
$GNGGA,130100.85,5213.25670588,N,02100.51785369,E,0,09,2.7,116.172,M,31.304,M,0.8,0350*XD
$GNGGA,130100.88,5213.25669733,N,02100.51784363,E,0,09,2.7,116.172,M,31.304,M,0.9,0350*XD
$GNGGA,130100.90,5213.25669163,N,02100.51783693,E,4,09,2.7,116.188,M,31.304,M,0.9,0350*5A
$GNGGA,130100.92,5213.25668744,N,02100.51782287,E,0,09,2.7,116.151,M,31.304,M,0.9,0350*XD
$GNGGA,130100.95,5213.25668117,N,02100.51780178,E,0,09,2.7,116.151,M,31.304,M,0.9,0350*XD
$GNGGA,130100.98,5213.25667489,N,02100.51778068,E,0,09,2.7,116.151,M,31.304,M,1.0,0350*XD
$GNGGA,130101.00,5213.25667070,N,02100.51776662,E,4,09,2.7,116.115,M,31.304,M,1.0,0350*57
$GNGGA,130101.07,5213.25666669,N,02100.51773366,E,0,09,2.7,116.114,M,31.304,M,1.1,0350*XD
$GNGGA,130101.14,5213.25666889,N,02100.51770036,E,0,09,2.7,116.121,M,31.304,M,1.1,0350*XD
$GNGGA,130101.21,5213.25667660,N,02100.51766738,E,0,09,2.7,116.160,M,31.304,M,1.2,0350*XD
$GNGGA,130101.29,5213.25669114,N,02100.51763379,E,0,09,2.7,116.160,M,31.304,M,1.3,0350*XD
$GNGGA,130101.36,5213.25668681,N,02100.51758017,E,0,09,2.7,116.131,M,31.304,M,1.4,0350*XD
$GNGGA,130101.43,5213.25668138,N,02100.51753492,E,0,09,2.7,116.085,M,31.304,M,1.4,0350*XD
$GNGGA,130101.50,5213.25667827,N,02100.51750622,E,4,09,2.7,116.100,M,31.304,M,1.5,0350*59
$GNGGA,130101.52,5213.25668068,N,02100.51750255,E,0,09,2.7,116.157,M,31.304,M,1.5,0350*XD
$GNGGA,130101.55,5213.25668430,N,02100.51749704,E,0,09,2.7,116.157,M,31.304,M,1.6,0350*XD
$GNGGA,130101.57,5213.25668670,N,02100.51749337,E,0,09,2.7,116.157,M,31.304,M,1.6,0350*XD
$GNGGA,130101.60,5213.25669032,N,02100.51748786,E,4,09,2.7,116.215,M,31.304,M,0.6,0350*5B
$GNGGA,130101.62,5213.25669313,N,02100.51747976,E,0,09,2.7,116.229,M,31.304,M,0.6,0350*XD
$GNGGA,130101.64,5213.25669594,N,02100.51747167,E,0,09,2.7,116.229,M,31.304,M,0.6,0350*XD
$GNGGA,130101.67,5213.25670015,N,02100.51745952,E,0,09,2.7,116.229,M,31.304,M,0.7,0350*XD
$GNGGA,130101.69,5213.25670296,N,02100.51745143,E,0,09,2.7,116.229,M,31.304,M,0.7,0350*XD
$GNGGA,130101.71,5213.25670374,N,02100.51744158,E,0,09,2.7,116.225,M,31.304,M,0.7,0350*XD
$GNGGA,130101.74,5213.25670190,N,02100.51742418,E,0,09,2.7,116.225,M,31.304,M,0.7,0350*XD
$GNGGA,130101.76,5213.25670067,N,02100.51741259,E,0,09,2.7,116.225,M,31.304,M,0.8,0350*XD
$GNGGA,130101.79,5213.25669883,N,02100.51739519,E,0,09,2.7,116.225,M,31.304,M,0.8,0350*XD
$GNGGA,130101.81,5213.25669715,N,02100.51738605,E,0,09,2.7,116.210,M,31.304,M,0.8,0350*XD
$GNGGA,130101.83,5213.25669503,N,02100.51737937,E,0,09,2.7,116.210,M,31.304,M,0.8,0350*XD
$GNGGA,130101.86,5213.25669185,N,02100.51736935,E,0,09,2.7,116.210,M,31.304,M,0.9,0350*XD
$GNGGA,130101.88,5213.25668973,N,02100.51736267,E,0,09,2.7,116.210,M,31.304,M,0.9,0350*XD
$GNGGA,130101.90,5213.25668761,N,02100.51735599,E,4,09,2.7,116.213,M,31.304,M,0.9,0350*5B
$GNGGA,130101.93,5213.25669032,N,02100.51734480,E,0,09,2.7,116.221,M,31.304,M,0.9,0350*XD
$GNGGA,130101.95,5213.25669212,N,02100.51733734,E,0,09,2.7,116.221,M,31.304,M,0.9,0350*XD
$GNGGA,130101.98,5213.25669483,N,02100.51732615,E,0,09,2.7,116.221,M,31.304,M,1.0,0350*XD
$GNGGA,130102.00,5213.25669663,N,02100.51731869,E,4,09,2.7,116.230,M,31.304,M,1.0,0350*5C
$GNGGA,130102.08,5213.25669858,N,02100.51728239,E,0,09,2.7,116.237,M,31.304,M,1.1,0350*XD
$GNGGA,130102.17,5213.25669447,N,02100.51723667,E,0,09,2.7,116.242,M,31.304,M,1.2,0350*XD
$GNGGA,130102.25,5213.25669991,N,02100.51719747,E,0,09,2.7,116.246,M,31.304,M,1.3,0350*XD
$GNGGA,130102.33,5213.25670536,N,02100.51715808,E,0,09,2.7,116.215,M,31.304,M,1.3,0350*XD
$GNGGA,130102.42,5213.25669927,N,02100.51710991,E,0,09,2.7,116.186,M,31.304,M,1.4,0350*XD
$GNGGA,130102.50,5213.25669324,N,02100.51706543,E,4,09,2.7,116.195,M,31.304,M,1.5,0350*57
$GNGGA,130102.52,5213.25670093,N,02100.51706608,E,0,09,2.7,116.264,M,31.304,M,1.5,0350*XD
$GNGGA,130102.55,5213.25671248,N,02100.51706706,E,0,09,2.7,116.264,M,31.304,M,1.6,0350*XD
$GNGGA,130102.57,5213.25672017,N,02100.51706771,E,0,09,2.7,116.264,M,31.304,M,1.6,0350*XD
$GNGGA,130102.60,5213.25673171,N,02100.51706869,E,4,09,2.7,116.334,M,31.304,M,0.6,0350*53
$GNGGA,130102.62,5213.25673179,N,02100.51705592,E,0,09,2.7,116.297,M,31.304,M,0.6,0350*XD
$GNGGA,130102.64,5213.25673187,N,02100.51704315,E,0,09,2.7,116.297,M,31.304,M,0.6,0350*XD
$GNGGA,130102.67,5213.25673199,N,02100.51702400,E,0,09,2.7,116.297,M,31.304,M,0.7,0350*XD
$GNGGA,130102.69,5213.25673207,N,02100.51701123,E,0,09,2.7,116.297,M,31.304,M,0.7,0350*XD
$GNGGA,130102.71,5213.25673314,N,02100.51700145,E,0,09,2.7,116.271,M,31.304,M,0.7,0350*XD
$GNGGA,130102.74,5213.25673621,N,02100.51699123,E,0,09,2.7,116.271,M,31.304,M,0.7,0350*XD
$GNGGA,130102.76,5213.25673826,N,02100.51698443,E,0,09,2.7,116.271,M,31.304,M,0.8,0350*XD
$GNGGA,130102.79,5213.25674133,N,02100.51697421,E,0,09,2.7,116.271,M,31.304,M,0.8,0350*XD
$GNGGA,130102.81,5213.25674258,N,02100.51697006,E,0,09,2.7,116.302,M,31.304,M,0.8,0350*XD
$GNGGA,130102.83,5213.25674303,N,02100.51696855,E,0,09,2.7,116.302,M,31.304,M,0.8,0350*XD
$GNGGA,130102.86,5213.25674370,N,02100.51696629,E,0,09,2.7,116.302,M,31.304,M,0.9,0350*XD
$GNGGA,130102.88,5213.25674415,N,02100.51696479,E,0,09,2.7,116.302,M,31.304,M,0.9,0350*XD
$GNGGA,130102.90,5213.25674460,N,02100.51696328,E,4,09,2.7,116.323,M,31.304,M,0.9,0350*51
$GNGGA,130102.93,5213.25674745,N,02100.51695660,E,0,09,2.7,116.350,M,31.304,M,0.9,0350*XD
$GNGGA,130102.95,5213.25674935,N,02100.51695216,E,0,09,2.7,116.350,M,31.304,M,0.9,0350*XD
$GNGGA,130102.98,5213.25675220,N,02100.51694548,E,0,09,2.7,116.350,M,31.304,M,1.0,0350*XD
$GNGGA,130103.00,5213.25675410,N,02100.51694103,E,4,09,2.7,116.376,M,31.304,M,1.0,0350*5E
$GNGGA,130103.06,5213.25675831,N,02100.51692655,E,0,09,2.7,116.400,M,31.304,M,1.1,0350*XD
$GNGGA,130103.11,5213.25675974,N,02100.51691291,E,0,09,2.7,116.422,M,31.304,M,1.1,0350*XD
$GNGGA,130103.17,5213.25675155,N,02100.51688905,E,0,09,2.7,116.422,M,31.304,M,1.2,0350*XD
$GNGGA,130103.22,5213.25675018,N,02100.51686622,E,0,09,2.7,116.424,M,31.304,M,1.2,0350*XD
$GNGGA,130103.28,5213.25675835,N,02100.51683352,E,0,09,2.7,116.424,M,31.304,M,1.3,0350*XD
$GNGGA,130103.33,5213.25675795,N,02100.51679884,E,0,09,2.7,116.397,M,31.304,M,1.3,0350*XD
$GNGGA,130103.39,5213.25675169,N,02100.51675128,E,0,09,2.7,116.397,M,31.304,M,1.4,0350*XD
$GNGGA,130103.44,5213.25674928,N,02100.51672327,E,0,09,2.7,116.350,M,31.304,M,1.4,0350*XD
$GNGGA,130103.50,5213.25674723,N,02100.51669314,E,4,09,2.7,116.336,M,31.304,M,1.5,0350*5E
$GNGGA,130103.53,5213.25674582,N,02100.51666547,E,0,09,2.7,116.326,M,31.304,M,1.5,0350*XD
$GNGGA,130103.56,5213.25674441,N,02100.51663780,E,0,09,2.7,116.326,M,31.304,M,1.6,0350*XD
$GNGGA,130103.58,5213.25674347,N,02100.51661936,E,0,09,2.7,116.326,M,31.304,M,1.6,0350*XD
$GNGGA,130103.61,5213.25674249,N,02100.51659657,E,0,09,2.7,116.327,M,31.304,M,0.6,0350*XD
$GNGGA,130103.64,5213.25674236,N,02100.51658355,E,0,09,2.7,116.327,M,31.304,M,0.6,0350*XD
$GNGGA,130103.67,5213.25674223,N,02100.51657052,E,0,09,2.7,116.327,M,31.304,M,0.7,0350*XD
$GNGGA,130103.69,5213.25674214,N,02100.51656184,E,0,09,2.7,116.327,M,31.304,M,0.7,0350*XD
$GNGGA,130103.72,5213.25674041,N,02100.51655773,E,0,09,2.7,116.349,M,31.304,M,0.7,0350*XD
$GNGGA,130103.75,5213.25673787,N,02100.51655807,E,0,09,2.7,116.349,M,31.304,M,0.8,0350*XD
$GNGGA,130103.78,5213.25673533,N,02100.51655840,E,0,09,2.7,116.349,M,31.304,M,0.8,0350*XD
$GNGGA,130103.81,5213.25673683,N,02100.51654312,E,0,09,2.7,116.310,M,31.304,M,0.8,0350*XD
$GNGGA,130103.83,5213.25674320,N,02100.51651209,E,0,09,2.7,116.310,M,31.304,M,0.8,0350*XD
$GNGGA,130103.86,5213.25675276,N,02100.51646555,E,0,09,2.7,116.310,M,31.304,M,0.9,0350*XD
$GNGGA,130103.89,5213.25676231,N,02100.51641900,E,0,09,2.7,116.310,M,31.304,M,0.9,0350*XD
$GNGGA,130103.92,5213.25676057,N,02100.51641258,E,0,09,2.7,116.306,M,31.304,M,0.9,0350*XD
$GNGGA,130103.94,5213.25675564,N,02100.51642168,E,0,09,2.7,116.306,M,31.304,M,0.9,0350*XD
$GNGGA,130103.97,5213.25674825,N,02100.51643532,E,0,09,2.7,116.306,M,31.304,M,1.0,0350*XD
$GNGGA,130104.00,5213.25674085,N,02100.51644896,E,4,09,2.7,116.352,M,31.304,M,1.0,0350*5E
$GNGGA,130104.04,5213.25674692,N,02100.51643311,E,0,09,2.7,116.400,M,31.304,M,1.0,0350*XD
$GNGGA,130104.13,5213.25675367,N,02100.51639666,E,0,09,2.7,116.451,M,31.304,M,1.1,0350*XD
$GNGGA,130104.14,5213.25675288,N,02100.51639244,E,0,09,2.7,116.451,M,31.304,M,1.1,0350*XD
$GNGGA,130104.18,5213.25674973,N,02100.51637553,E,0,09,2.7,116.451,M,31.304,M,1.2,0350*XD
$GNGGA,130104.23,5213.25675098,N,02100.51636037,E,0,09,2.7,116.472,M,31.304,M,1.2,0350*XD
$GNGGA,130104.27,5213.25675473,N,02100.51635143,E,0,09,2.7,116.472,M,31.304,M,1.3,0350*XD
$GNGGA,130104.32,5213.25675426,N,02100.51633095,E,0,09,2.7,116.440,M,31.304,M,1.3,0350*XD
$GNGGA,130104.36,5213.25674769,N,02100.51630342,E,0,09,2.7,116.440,M,31.304,M,1.4,0350*XD
$GNGGA,130104.41,5213.25674356,N,02100.51627073,E,0,09,2.7,116.452,M,31.304,M,1.4,0350*XD
$GNGGA,130104.46,5213.25675582,N,02100.51624494,E,0,09,2.7,116.452,M,31.304,M,1.5,0350*XD
$GNGGA,130104.50,5213.25676563,N,02100.51622431,E,4,09,2.7,116.515,M,31.304,M,1.5,0350*55
$GNGGA,130104.53,5213.25676605,N,02100.51621168,E,0,09,2.7,116.477,M,31.304,M,1.5,0350*XD
$GNGGA,130104.56,5213.25676647,N,02100.51619905,E,0,09,2.7,116.477,M,31.304,M,1.6,0350*XD
$GNGGA,130104.59,5213.25676689,N,02100.51618642,E,0,09,2.7,116.477,M,31.304,M,1.6,0350*XD
$GNGGA,130104.62,5213.25676630,N,02100.51616366,E,0,09,2.7,116.394,M,31.304,M,1.6,0350*XD
$GNGGA,130104.65,5213.25676520,N,02100.51613583,E,0,09,2.7,116.394,M,31.304,M,1.7,0350*XD
$GNGGA,130104.68,5213.25676410,N,02100.51610801,E,0,09,2.7,116.394,M,31.304,M,1.7,0350*XD
$GNGGA,130104.71,5213.25676349,N,02100.51608477,E,0,09,2.7,116.351,M,31.304,M,0.7,0350*XD
$GNGGA,130104.74,5213.25676385,N,02100.51607071,E,0,09,2.7,116.351,M,31.304,M,0.7,0350*XD
$GNGGA,130104.76,5213.25676409,N,02100.51606134,E,0,09,2.7,116.351,M,31.304,M,0.8,0350*XD
$GNGGA,130104.79,5213.25676445,N,02100.51604728,E,0,09,2.7,116.351,M,31.304,M,0.8,0350*XD
$GNGGA,130104.82,5213.25676245,N,02100.51602508,E,0,09,2.7,116.358,M,31.304,M,0.8,0350*XD
$GNGGA,130104.85,5213.25675927,N,02100.51599881,E,0,09,2.7,116.358,M,31.304,M,0.8,0350*XD
$GNGGA,130104.88,5213.25675609,N,02100.51597255,E,0,09,2.7,116.358,M,31.304,M,0.9,0350*XD
$GNGGA,130104.91,5213.25675524,N,02100.51594990,E,0,09,2.7,116.385,M,31.304,M,0.9,0350*XD
$GNGGA,130104.94,5213.25675904,N,02100.51593448,E,0,09,2.7,116.385,M,31.304,M,0.9,0350*XD
$GNGGA,130104.97,5213.25676285,N,02100.51591905,E,0,09,2.7,116.385,M,31.304,M,1.0,0350*XD
$GNGGA,130105.00,5213.25676665,N,02100.51590363,E,4,09,2.7,116.405,M,31.304,M,1.0,0350*5B
$GNGGA,130105.04,5213.25676825,N,02100.51587461,E,0,09,2.7,116.382,M,31.304,M,1.0,0350*XD
$GNGGA,130105.08,5213.25676984,N,02100.51584559,E,0,09,2.7,116.382,M,31.304,M,1.1,0350*XD
$GNGGA,130105.12,5213.25677123,N,02100.51582626,E,0,09,2.7,116.388,M,31.304,M,1.1,0350*XD
$GNGGA,130105.15,5213.25677210,N,02100.51581904,E,0,09,2.7,116.388,M,31.304,M,1.2,0350*XD
$GNGGA,130105.19,5213.25677328,N,02100.51580941,E,0,09,2.7,116.388,M,31.304,M,1.2,0350*XD
$GNGGA,130105.23,5213.25677202,N,02100.51578167,E,0,09,2.7,116.359,M,31.304,M,1.2,0350*XD
$GNGGA,130105.27,5213.25676994,N,02100.51574790,E,0,09,2.7,116.359,M,31.304,M,1.3,0350*XD
$GNGGA,130105.31,5213.25677116,N,02100.51572012,E,0,09,2.7,116.327,M,31.304,M,1.3,0350*XD
$GNGGA,130105.35,5213.25678226,N,02100.51571034,E,0,09,2.7,116.327,M,31.304,M,1.3,0350*XD
$GNGGA,130105.38,5213.25679059,N,02100.51570300,E,0,09,2.7,116.327,M,31.304,M,1.4,0350*XD
$GNGGA,130105.42,5213.25679628,N,02100.51568829,E,0,09,2.7,116.409,M,31.304,M,1.4,0350*XD
$GNGGA,130105.46,5213.25679657,N,02100.51566866,E,0,09,2.7,116.409,M,31.304,M,1.5,0350*XD
$GNGGA,130105.50,5213.25679686,N,02100.51564902,E,4,09,2.7,116.467,M,31.304,M,1.5,0350*5B
$GNGGA,130105.54,5213.25679467,N,02100.51560530,E,0,09,2.7,116.433,M,31.304,M,1.5,0350*XD
$GNGGA,130105.58,5213.25679248,N,02100.51556158,E,0,09,2.7,116.433,M,31.304,M,1.6,0350*XD
$GNGGA,130105.62,5213.25679198,N,02100.51553016,E,0,09,2.7,116.399,M,31.304,M,0.6,0350*XD
$GNGGA,130105.65,5213.25679287,N,02100.51551582,E,0,09,2.7,116.399,M,31.304,M,0.7,0350*XD
$GNGGA,130105.69,5213.25679404,N,02100.51549671,E,0,09,2.7,116.399,M,31.304,M,0.7,0350*XD
$GNGGA,130105.73,5213.25679088,N,02100.51548657,E,0,09,2.7,116.441,M,31.304,M,0.7,0350*XD
$GNGGA,130105.77,5213.25678626,N,02100.51547942,E,0,09,2.7,116.441,M,31.304,M,0.8,0350*XD
$GNGGA,130105.81,5213.25678555,N,02100.51546423,E,0,09,2.7,116.450,M,31.304,M,0.8,0350*XD
$GNGGA,130105.85,5213.25679653,N,02100.51542490,E,0,09,2.7,116.450,M,31.304,M,0.8,0350*XD
$GNGGA,130105.88,5213.25680478,N,02100.51539540,E,0,09,2.7,116.450,M,31.304,M,0.9,0350*XD
$GNGGA,130105.92,5213.25680833,N,02100.51536996,E,0,09,2.7,116.450,M,31.304,M,0.9,0350*XD
$GNGGA,130105.96,5213.25680446,N,02100.51535840,E,0,09,2.7,116.450,M,31.304,M,1.0,0350*XD
$GNGGA,130106.00,5213.25680058,N,02100.51534684,E,4,09,2.7,116.484,M,31.304,M,1.0,0350*52
$GNGGA,130106.04,5213.25680096,N,02100.51531736,E,0,09,2.7,116.464,M,31.304,M,1.0,0350*XD
$GNGGA,130106.08,5213.25680134,N,02100.51528789,E,0,09,2.7,116.464,M,31.304,M,1.1,0350*XD
$GNGGA,130106.12,5213.25680064,N,02100.51525937,E,0,09,2.7,116.406,M,31.304,M,1.1,0350*XD
$GNGGA,130106.15,5213.25679930,N,02100.51523869,E,0,09,2.7,116.406,M,31.304,M,1.2,0350*XD
$GNGGA,130106.19,5213.25679752,N,02100.51521113,E,0,09,2.7,116.406,M,31.304,M,1.2,0350*XD
$GNGGA,130106.23,5213.25679532,N,02100.51522336,E,0,09,2.7,116.487,M,31.304,M,1.2,0350*XD
$GNGGA,130106.27,5213.25679298,N,02100.51524886,E,0,09,2.7,116.487,M,31.304,M,1.3,0350*XD
$GNGGA,130106.31,5213.25679354,N,02100.51531710,E,0,09,2.7,116.968,M,31.304,M,1.3,0350*XD
$GNGGA,130106.35,5213.25680284,N,02100.51551360,E,0,09,2.7,116.968,M,31.304,M,1.3,0350*XD
$GNGGA,130106.38,5213.25680982,N,02100.51566097,E,0,09,2.7,116.968,M,31.304,M,1.4,0350*XD
$GNGGA,130106.42,5213.25681291,N,02100.51561969,E,0,09,2.7,116.913,M,31.304,M,1.4,0350*XD
$GNGGA,130106.46,5213.25680978,N,02100.51534062,E,0,09,2.7,116.913,M,31.304,M,1.5,0350*XD
$GNGGA,130106.50,5213.25680665,N,02100.51506156,E,4,09,2.7,116.495,M,31.304,M,1.5,0350*53
$GNGGA,130106.54,5213.25680488,N,02100.51503771,E,0,09,2.7,116.401,M,31.304,M,1.5,0350*XD
$GNGGA,130106.58,5213.25680311,N,02100.51501386,E,0,09,2.7,116.401,M,31.304,M,1.6,0350*XD
$GNGGA,130106.62,5213.25680776,N,02100.51499161,E,0,09,2.7,116.345,M,31.304,M,0.6,0350*XD
$GNGGA,130106.65,5213.25681606,N,02100.51497614,E,0,09,2.7,116.345,M,31.304,M,0.7,0350*XD
$GNGGA,130106.69,5213.25682713,N,02100.51495551,E,0,09,2.7,116.345,M,31.304,M,0.7,0350*XD
$GNGGA,130106.73,5213.25682773,N,02100.51490910,E,0,09,2.7,116.290,M,31.304,M,0.7,0350*XD
$GNGGA,130106.77,5213.25682483,N,02100.51485410,E,0,09,2.7,116.290,M,31.304,M,0.8,0350*XD
$GNGGA,130106.81,5213.25682283,N,02100.51481262,E,0,09,2.7,116.243,M,31.304,M,0.8,0350*XD
$GNGGA,130106.85,5213.25682349,N,02100.51481169,E,0,09,2.7,116.243,M,31.304,M,0.8,0350*XD
$GNGGA,130106.88,5213.25682399,N,02100.51481100,E,0,09,2.7,116.243,M,31.304,M,0.9,0350*XD
$GNGGA,130106.92,5213.25682241,N,02100.51479937,E,0,09,2.7,116.279,M,31.304,M,0.9,0350*XD
$GNGGA,130106.96,5213.25681858,N,02100.51477703,E,0,09,2.7,116.279,M,31.304,M,1.0,0350*XD
$GNGGA,130107.00,5213.25681476,N,02100.51475469,E,4,09,2.7,116.269,M,31.304,M,1.0,0350*5A
$GNGGA,130107.07,5213.25681037,N,02100.51472945,E,0,09,2.7,116.274,M,31.304,M,1.1,0350*XD
$GNGGA,130107.14,5213.25681199,N,02100.51471176,E,0,10,3.6,116.351,M,31.304,M,1.1,0350*XD
$GNGGA,130107.21,5213.25681797,N,02100.51468203,E,0,11,4.6,116.332,M,31.304,M,1.2,0350*XD
$GNGGA,130107.29,5213.25682380,N,02100.51452655,E,0,11,4.6,116.332,M,31.304,M,1.3,0350*XD
$GNGGA,130107.36,5213.25682605,N,02100.51452206,E,0,11,4.6,116.284,M,31.304,M,1.4,0350*XD
$GNGGA,130107.43,5213.25682945,N,02100.51449481,E,0,11,4.6,116.284,M,31.304,M,1.4,0350*XD
$GNGGA,130107.50,5213.25683503,N,02100.51440797,E,4,11,4.6,116.240,M,31.304,M,1.5,0350*5A
$GNGGA,130107.53,5213.25683523,N,02100.51437944,E,0,09,4.5,116.233,M,31.304,M,1.5,0350*XD
$GNGGA,130107.56,5213.25683543,N,02100.51435092,E,0,09,4.5,116.233,M,31.304,M,1.6,0350*XD
$GNGGA,130107.58,5213.25683556,N,02100.51433190,E,0,09,4.5,116.233,M,31.304,M,1.6,0350*XD
$GNGGA,130107.61,5213.25683511,N,02100.51430571,E,0,07,4.5,116.236,M,31.304,M,0.6,0350*XD
$GNGGA,130107.64,5213.25683337,N,02100.51428420,E,0,07,4.5,116.236,M,31.304,M,0.6,0350*XD
$GNGGA,130107.67,5213.25683163,N,02100.51426268,E,0,07,4.5,116.236,M,31.304,M,0.7,0350*XD
$GNGGA,130107.69,5213.25683047,N,02100.51424834,E,0,07,4.5,116.236,M,31.304,M,0.7,0350*XD
$GNGGA,130107.72,5213.25682859,N,02100.51424132,E,0,07,4.5,116.272,M,31.304,M,0.7,0350*XD
$GNGGA,130107.75,5213.25682663,N,02100.51424154,E,0,07,4.5,116.272,M,31.304,M,0.8,0350*XD
$GNGGA,130107.78,5213.25682468,N,02100.51424175,E,0,07,4.5,116.272,M,31.304,M,0.8,0350*XD
$GNGGA,130107.81,5213.25682396,N,02100.51422697,E,0,07,4.5,116.258,M,31.304,M,0.8,0350*XD
$GNGGA,130107.83,5213.25682514,N,02100.51419711,E,0,07,4.5,116.258,M,31.304,M,0.8,0350*XD
$GNGGA,130107.86,5213.25682689,N,02100.51415232,E,0,07,4.5,116.258,M,31.304,M,0.9,0350*XD
$GNGGA,130107.89,5213.25682865,N,02100.51410753,E,0,07,4.5,116.258,M,31.304,M,0.9,0350*XD
$GNGGA,130107.92,5213.25692362,N,02100.51424978,E,0,12,2.6,117.289,M,31.304,M,0.9,0350*XD
$GNGGA,130107.94,5213.25701800,N,02100.51440696,E,0,12,2.6,117.289,M,31.304,M,0.9,0350*XD
$GNGGA,130107.97,5213.25715958,N,02100.51464274,E,0,12,2.6,117.289,M,31.304,M,1.0,0350*XD
$GNGGA,130108.00,5213.25730116,N,02100.51487851,E,2,18,0.7,118.359,M,31.304,M,1.0,0350*5F
$GNGGA,130108.10,5213.25729549,N,02100.51481240,E,2,18,0.7,118.355,M,31.304,M,1.0,0350*58
$GNGGA,130108.20,5213.25725350,N,02100.51470670,E,2,18,0.7,118.364,M,31.304,M,1.2,0350*50
$GNGGA,130108.30,5213.25725220,N,02100.51463018,E,2,18,0.7,118.389,M,31.304,M,1.2,0350*5E
$GNGGA,130108.40,5213.25721972,N,02100.51453463,E,2,19,0.6,118.387,M,31.304,M,1.4,0350*52
$GNGGA,130108.50,5213.25721450,N,02100.51446806,E,2,19,0.6,118.384,M,31.304,M,1.4,0350*56
$GNGGA,130108.53,5213.25721230,N,02100.51444201,E,0,19,0.6,118.385,M,31.304,M,1.4,0350*XD
$GNGGA,130108.56,5213.25721011,N,02100.51441595,E,0,19,0.6,118.385,M,31.304,M,1.5,0350*XD
$GNGGA,130108.58,5213.25720864,N,02100.51439858,E,0,19,0.6,118.385,M,31.304,M,1.5,0350*XD
$GNGGA,130108.61,5213.25720732,N,02100.51437390,E,0,18,0.6,118.396,M,31.304,M,0.6,0350*XD
$GNGGA,130108.64,5213.25720775,N,02100.51435197,E,0,18,0.6,118.396,M,31.304,M,0.6,0350*XD
$GNGGA,130108.67,5213.25720817,N,02100.51433004,E,0,18,0.6,118.396,M,31.304,M,0.7,0350*XD
$GNGGA,130108.69,5213.25720846,N,02100.51431542,E,0,18,0.6,118.396,M,31.304,M,0.7,0350*XD
$GNGGA,130108.72,5213.25720660,N,02100.51429077,E,0,18,0.6,118.400,M,31.304,M,0.6,0350*XD
$GNGGA,130108.75,5213.25720361,N,02100.51426476,E,0,18,0.6,118.400,M,31.304,M,0.7,0350*XD
$GNGGA,130108.78,5213.25720062,N,02100.51423874,E,0,18,0.6,118.400,M,31.304,M,0.7,0350*XD
$GNGGA,130108.81,5213.25719919,N,02100.51421526,E,0,18,0.6,118.392,M,31.304,M,0.8,0350*XD
$GNGGA,130108.83,5213.25720033,N,02100.51420298,E,0,18,0.6,118.392,M,31.304,M,0.8,0350*XD
$GNGGA,130108.86,5213.25720204,N,02100.51418457,E,0,18,0.6,118.392,M,31.304,M,0.9,0350*XD
$GNGGA,130108.89,5213.25720375,N,02100.51416615,E,0,18,0.6,118.392,M,31.304,M,0.9,0350*XD
$GNGGA,130108.92,5213.25720735,N,02100.51414404,E,0,18,0.6,118.383,M,31.304,M,0.8,0350*XD
$GNGGA,130108.94,5213.25721037,N,02100.51412808,E,0,18,0.6,118.383,M,31.304,M,0.8,0350*XD
$GNGGA,130108.97,5213.25721491,N,02100.51410413,E,0,18,0.6,118.383,M,31.304,M,0.9,0350*XD
$GNGGA,130109.00,5213.25721945,N,02100.51408018,E,2,19,0.6,118.376,M,31.304,M,1.0,0350*5F
$GNGGA,130109.10,5213.25721988,N,02100.51400922,E,2,19,0.6,118.369,M,31.304,M,1.0,0350*59
$GNGGA,130109.20,5213.25723594,N,02100.51391476,E,2,19,0.6,118.349,M,31.304,M,1.2,0350*5A
$GNGGA,130109.30,5213.25722854,N,02100.51384814,E,2,19,0.6,118.349,M,31.304,M,1.2,0350*57
$GNGGA,130109.40,5213.25722461,N,02100.51378950,E,2,19,0.6,118.339,M,31.304,M,0.4,0350*58
$GNGGA,130109.50,5213.25724014,N,02100.51371926,E,2,19,0.6,118.334,M,31.304,M,0.4,0350*5C
$GNGGA,130109.62,5213.25725493,N,02100.51363931,E,0,19,0.6,118.326,M,31.304,M,0.6,0350*XD
$GNGGA,130109.75,5213.25726509,N,02100.51354483,E,0,19,0.6,118.322,M,31.304,M,0.7,0350*XD
$GNGGA,130109.88,5213.25727819,N,02100.51345396,E,0,19,0.6,118.314,M,31.304,M,0.9,0350*XD
$GNGGA,130110.00,5213.25728395,N,02100.51336735,E,2,19,0.6,118.303,M,31.304,M,1.0,0350*59
