Trying 192.168.1.53...
Connected to 192.168.1.53.
Escape character is '^]'.
$GNGGA,130021.10,5213.25657831,N,02100.52129281,E,4,10,2.3,116.143,M,31.304,M,1.1,0350*53
$GNGGA,130021.20,5213.25657657,N,02100.52129080,E,4,10,2.3,116.139,M,31.304,M,1.2,0350*53
$GNGGA,130021.30,5213.25657726,N,02100.52129032,E,4,10,2.3,116.134,M,31.304,M,1.3,0350*50
$GNGGA,130021.40,5213.25657956,N,02100.52129029,E,4,10,2.3,116.139,M,31.304,M,1.4,0350*5E
$GNGGA,130021.50,5213.25657755,N,02100.52129031,E,4,10,2.3,116.137,M,31.304,M,0.5,0350*55
$GNGGA,130021.60,5213.25657661,N,02100.52128989,E,4,10,2.3,116.140,M,31.304,M,0.6,0350*58
$GNGGA,130021.70,5213.25657876,N,02100.52128812,E,4,10,2.3,116.138,M,31.304,M,0.7,0350*5C
$GNGGA,130021.80,5213.25657906,N,02100.52129188,E,4,10,2.3,116.144,M,31.304,M,0.8,0350*5A
$GNGGA,130021.90,5213.25658107,N,02100.52128990,E,4,10,2.3,116.141,M,31.304,M,0.9,0350*59
$GNGGA,130022.00,5213.25657840,N,02100.52128826,E,4,10,2.3,116.140,M,31.304,M,1.0,0350*53
$GNGGA,130022.10,5213.25657939,N,02100.52129077,E,4,10,2.3,116.143,M,31.304,M,1.1,0350*52
$GNGGA,130022.20,5213.25657808,N,02100.52128853,E,4,10,2.3,116.141,M,31.304,M,1.2,0350*5C
$GNGGA,130022.30,5213.25657757,N,02100.52128629,E,4,10,2.3,116.126,M,31.304,M,1.3,0350*5B
$GNGGA,130022.40,5213.25657842,N,02100.52128857,E,4,10,2.3,116.142,M,31.304,M,1.4,0350*55
$GNGGA,130022.50,5213.25657819,N,02100.52129048,E,4,10,2.3,116.139,M,31.304,M,1.5,0350*50
$GNGGA,130022.60,5213.25657743,N,02100.52128604,E,4,10,2.3,116.134,M,31.304,M,1.6,0350*52
$GNGGA,130022.70,5213.25657833,N,02100.52128608,E,4,10,2.3,116.131,M,31.304,M,0.7,0350*52
$GNGGA,130022.80,5213.25657816,N,02100.52128445,E,4,10,2.3,116.127,M,31.304,M,0.8,0350*59
$GNGGA,130022.90,5213.25657874,N,02100.52128659,E,4,10,2.3,116.127,M,31.304,M,0.9,0350*52
$GNGGA,130023.00,5213.25657518,N,02100.52128818,E,4,10,2.3,116.137,M,31.304,M,1.0,0350*5F
$GNGGA,130023.10,5213.25657701,N,02100.52128638,E,4,10,2.3,116.134,M,31.304,M,1.1,0350*5A
$GNGGA,130023.20,5213.25657684,N,02100.52128860,E,4,10,2.3,116.142,M,31.304,M,1.2,0350*54
$GNGGA,130023.30,5213.25657639,N,02100.52128860,E,4,10,2.3,116.136,M,31.304,M,1.3,0350*51
$GNGGA,130023.40,5213.25657482,N,02100.52128721,E,4,10,2.3,116.132,M,31.304,M,1.4,0350*5D
$GNGGA,130023.50,5213.25657646,N,02100.52129087,E,4,10,2.3,116.145,M,31.304,M,1.5,0350*5D
$GNGGA,130023.60,5213.25658096,N,02100.52128695,E,4,10,2.3,116.136,M,31.304,M,0.6,0350*58
$GNGGA,130023.70,5213.25657670,N,02100.52129070,E,4,10,2.3,116.135,M,31.304,M,0.7,0350*56
$GNGGA,130023.80,5213.25657841,N,02100.52128720,E,4,10,2.3,116.138,M,31.304,M,0.8,0350*54
$GNGGA,130023.90,5213.25657798,N,02100.52129049,E,4,10,2.3,116.142,M,31.304,M,0.9,0350*5B
$GNGGA,130024.00,5213.25657971,N,02100.52128925,E,4,10,2.3,116.143,M,31.304,M,1.0,0350*57
$GNGGA,130024.10,5213.25658064,N,02100.52128991,E,4,10,2.3,116.144,M,31.304,M,1.1,0350*5D
$GNGGA,130024.20,5213.25658131,N,02100.52129359,E,4,10,2.3,116.148,M,31.304,M,1.2,0350*5F
$GNGGA,130024.30,5213.25657855,N,02100.52129131,E,4,10,2.3,116.143,M,31.304,M,1.3,0350*5C
$GNGGA,130024.40,5213.25657904,N,02100.52129188,E,4,10,2.3,116.148,M,31.304,M,1.4,0350*50
$GNGGA,130024.50,5213.25657864,N,02100.52129013,E,4,10,2.3,116.139,M,31.304,M,1.5,0350*52
$GNGGA,130024.60,5213.25657882,N,02100.52129023,E,4,10,2.3,116.142,M,31.304,M,0.6,0350*54
$GNGGA,130024.70,5213.25658012,N,02100.52129102,E,4,10,2.3,116.141,M,31.304,M,0.7,0350*5B
$GNGGA,130024.80,5213.25657614,N,02100.52129036,E,4,10,2.3,116.142,M,31.304,M,0.8,0350*51
$GNGGA,130024.90,5213.25657954,N,02100.52129105,E,4,10,2.3,116.143,M,31.304,M,0.9,0350*5A
$GNGGA,130025.00,5213.25658119,N,02100.52129224,E,4,10,2.3,116.148,M,31.304,M,1.0,0350*5F
$GNGGA,130025.10,5213.25657918,N,02100.52128938,E,4,10,2.3,116.144,M,31.304,M,1.1,0350*52
$GNGGA,130025.20,5213.25657992,N,02100.52129021,E,4,10,2.3,116.143,M,31.304,M,1.2,0350*57
$GNGGA,130025.30,5213.25658244,N,02100.52129271,E,4,10,2.3,116.152,M,31.304,M,1.3,0350*5F
$GNGGA,130025.40,5213.25658158,N,02100.52129143,E,4,10,2.3,116.154,M,31.304,M,1.4,0350*55
$GNGGA,130025.50,5213.25658102,N,02100.52129181,E,4,10,2.3,116.143,M,31.304,M,1.5,0350*52
$GNGGA,130025.60,5213.25658107,N,02100.52129190,E,4,10,2.3,116.146,M,31.304,M,0.6,0350*53
$GNGGA,130025.70,5213.25658131,N,02100.52129121,E,4,10,2.3,116.145,M,31.304,M,0.7,0350*5F
$GNGGA,130025.80,5213.25658312,N,02100.52129420,E,4,10,2.3,116.154,M,31.304,M,0.8,0350*58
$GNGGA,130025.90,5213.25657745,N,02100.52129041,E,4,10,2.3,116.140,M,31.304,M,0.9,0350*57
$GNGGA,130026.00,5213.25658015,N,02100.52129292,E,4,10,2.3,116.149,M,31.304,M,1.0,0350*5D
$GNGGA,130026.10,5213.25657922,N,02100.52129100,E,4,10,2.3,116.141,M,31.304,M,1.1,0350*5F
$GNGGA,130026.20,5213.25657413,N,02100.52129237,E,4,10,2.3,116.144,M,31.304,M,1.2,0350*52
$GNGGA,130026.30,5213.25657506,N,02100.52129026,E,4,10,2.3,116.135,M,31.304,M,1.3,0350*53
$GNGGA,130026.40,5213.25657606,N,02100.52129063,E,4,10,2.3,116.140,M,31.304,M,1.4,0350*53
$GNGGA,130026.50,5213.25657676,N,02100.52128776,E,4,10,2.3,116.130,M,31.304,M,1.5,0350*51
$GNGGA,130026.60,5213.25657428,N,02100.52128282,E,4,10,2.3,116.133,M,31.304,M,0.6,0350*54
$GNGGA,130026.70,5213.25657327,N,02100.52128464,E,4,10,2.3,116.137,M,31.304,M,0.7,0350*56
$GNGGA,130026.80,5213.25657488,N,02100.52128643,E,4,10,2.3,116.132,M,31.304,M,0.8,0350*56
$GNGGA,130026.90,5213.25657588,N,02100.52128465,E,4,10,2.3,116.135,M,31.304,M,0.9,0350*56
$GNGGA,130027.00,5213.25657325,N,02100.52128193,E,4,10,2.3,116.130,M,31.304,M,1.0,0350*5E
$GNGGA,130027.10,5213.25657512,N,02100.52128474,E,4,10,2.3,116.131,M,31.304,M,1.1,0350*51
$GNGGA,130027.20,5213.25657531,N,02100.52128396,E,4,10,2.3,116.136,M,31.304,M,1.2,0350*5C
$GNGGA,130027.30,5213.25657517,N,02100.52128243,E,4,10,2.3,116.134,M,31.304,M,1.3,0350*53
$GNGGA,130027.40,5213.25657640,N,02100.52128387,E,4,10,2.3,116.133,M,31.304,M,1.4,0350*5C
$GNGGA,130027.50,5213.25657738,N,02100.52128529,E,4,10,2.3,116.140,M,31.304,M,1.5,0350*54
$GNGGA,130027.60,5213.25657767,N,02100.52128797,E,4,10,2.3,116.134,M,31.304,M,0.6,0350*5B
$GNGGA,130027.70,5213.25658057,N,02100.52128802,E,4,10,2.3,116.136,M,31.304,M,0.7,0350*51
$GNGGA,130027.80,5213.25657993,N,02100.52128862,E,4,10,2.3,116.138,M,31.304,M,0.8,0350*57
$GNGGA,130027.90,5213.25658032,N,02100.52128827,E,4,10,2.3,116.142,M,31.304,M,0.9,0350*56
$GNGGA,130028.00,5213.25658094,N,02100.52129070,E,4,10,2.3,116.144,M,31.304,M,1.0,0350*59
$GNGGA,130028.10,5213.25658283,N,02100.52128916,E,4,10,2.3,116.142,M,31.304,M,1.1,0350*53
$GNGGA,130028.20,5213.25657986,N,02100.52129074,E,4,10,2.3,116.138,M,31.304,M,1.2,0350*53
$GNGGA,130028.30,5213.25658074,N,02100.52128612,E,4,10,2.3,116.131,M,31.304,M,1.3,0350*56
$GNGGA,130028.40,5213.25657821,N,02100.52128888,E,4,10,2.3,116.138,M,31.304,M,1.4,0350*55
$GNGGA,130028.50,5213.25657909,N,02100.52128938,E,4,10,2.3,116.137,M,31.304,M,1.5,0350*5B
$GNGGA,130028.60,5213.25657971,N,02100.52128908,E,4,10,2.3,116.137,M,31.304,M,0.6,0350*56
$GNGGA,130028.70,5213.25658153,N,02100.52128983,E,4,10,2.3,116.140,M,31.304,M,0.7,0350*52
$GNGGA,130028.80,5213.25658221,N,02100.52128870,E,4,10,2.3,116.145,M,31.304,M,0.8,0350*5C
$GNGGA,130028.90,5213.25658030,N,02100.52129105,E,4,10,2.3,116.145,M,31.304,M,0.9,0350*54
$GNGGA,130029.00,5213.25658010,N,02100.52128784,E,4,10,2.3,116.140,M,31.304,M,1.0,0350*5D
$GNGGA,130029.10,5213.25658124,N,02100.52128960,E,4,10,2.3,116.149,M,31.304,M,1.1,0350*56
$GNGGA,130029.20,5213.25658158,N,02100.52129051,E,4,10,2.3,116.140,M,31.304,M,1.2,0350*5E
$GNGGA,130029.30,5213.25658003,N,02100.52128748,E,4,10,2.3,116.138,M,31.304,M,1.3,0350*50
$GNGGA,130029.40,5213.25657938,N,02100.52129068,E,4,10,2.3,116.143,M,31.304,M,1.4,0350*56
$GNGGA,130029.50,5213.25657867,N,02100.52128852,E,4,10,2.3,116.142,M,31.304,M,1.5,0350*5C
$GNGGA,130029.60,5213.25658243,N,02100.52129325,E,4,10,2.3,116.145,M,31.304,M,0.6,0350*53
$GNGGA,130029.70,5213.25658194,N,02100.52129188,E,4,10,2.3,116.146,M,31.304,M,0.7,0350*5C
$GNGGA,130029.80,5213.25658048,N,02100.52128937,E,4,10,2.3,116.141,M,31.304,M,0.8,0350*56
$GNGGA,130029.90,5213.25658186,N,02100.52128813,E,4,10,2.3,116.129,M,31.304,M,0.9,0350*5C
$GNGGA,130030.00,5213.25657915,N,02100.52129039,E,4,10,2.3,116.146,M,31.304,M,1.0,0350*50
$GNGGA,130030.10,5213.25658069,N,02100.52129162,E,4,10,2.3,116.146,M,31.304,M,1.1,0350*52
$GNGGA,130030.20,5213.25658033,N,02100.52129053,E,4,10,2.3,116.140,M,31.304,M,1.2,0350*58
$GNGGA,130030.30,5213.25658056,N,02100.52129087,E,4,10,2.3,116.151,M,31.304,M,1.3,0350*52
$GNGGA,130030.40,5213.25658022,N,02100.52129032,E,4,10,2.3,116.142,M,31.304,M,1.4,0350*5D
$GNGGA,130030.50,5213.25658055,N,02100.52128831,E,4,10,2.3,116.142,M,31.304,M,0.5,0350*56
$GNGGA,130030.60,5213.25658003,N,02100.52129098,E,4,10,2.3,116.147,M,31.304,M,0.6,0350*5A
$GNGGA,130030.70,5213.25658027,N,02100.52128845,E,4,10,2.3,116.140,M,31.304,M,0.7,0350*52
$GNGGA,130030.80,5213.25657911,N,02100.52128788,E,4,10,2.3,116.142,M,31.304,M,0.8,0350*5D
$GNGGA,130030.90,5213.25657913,N,02100.52128871,E,4,10,2.3,116.146,M,31.304,M,0.9,0350*52
$GNGGA,130031.00,5213.25658079,N,02100.52128685,E,4,10,2.3,116.141,M,31.304,M,1.0,0350*5A
$GNGGA,130031.10,5213.25657815,N,02100.52128913,E,4,10,2.3,116.143,M,31.304,M,1.1,0350*55
$GNGGA,130031.20,5213.25658107,N,02100.52128895,E,4,10,2.3,116.140,M,31.304,M,1.2,0350*5C
$GNGGA,130031.30,5213.25657830,N,02100.52128875,E,4,10,2.3,116.149,M,31.304,M,1.3,0350*59
$GNGGA,130031.40,5213.25658019,N,02100.52128781,E,4,10,2.3,116.138,M,31.304,M,1.4,0350*57
$GNGGA,130031.50,5213.25657670,N,02100.52128750,E,4,10,2.3,116.136,M,31.304,M,0.5,0350*52
$GNGGA,130031.60,5213.25658097,N,02100.52128782,E,4,10,2.3,116.141,M,31.304,M,0.6,0350*5D
$GNGGA,130031.70,5213.25658075,N,02100.52128818,E,4,10,2.3,116.142,M,31.304,M,0.7,0350*5E
$GNGGA,130031.80,5213.25657948,N,02100.52129216,E,4,10,2.3,116.144,M,31.304,M,0.8,0350*55
$GNGGA,130031.90,5213.25657920,N,02100.52128802,E,4,10,2.3,116.134,M,31.304,M,0.9,0350*52
$GNGGA,130032.00,5213.25657876,N,02100.52129035,E,4,10,2.3,116.140,M,31.304,M,1.0,0350*5C
$GNGGA,130032.10,5213.25657656,N,02100.52129165,E,4,10,2.3,116.147,M,31.304,M,1.1,0350*53
$GNGGA,130032.20,5213.25657877,N,02100.52128881,E,4,10,2.3,116.140,M,31.304,M,1.2,0350*5B
$GNGGA,130032.30,5213.25657863,N,02100.52129072,E,4,10,2.3,116.144,M,31.304,M,1.3,0350*5F
$GNGGA,130032.40,5213.25657852,N,02100.52128824,E,4,10,2.3,116.137,M,31.304,M,1.4,0350*53
$GNGGA,130032.50,5213.25657876,N,02100.52129103,E,4,10,2.3,116.148,M,31.304,M,1.5,0350*50
$GNGGA,130032.60,5213.25658131,N,02100.52129084,E,4,10,2.3,116.143,M,31.304,M,0.6,0350*51
$GNGGA,130032.70,5213.25658208,N,02100.52129126,E,4,10,2.3,116.148,M,31.304,M,0.7,0350*5A
$GNGGA,130032.80,5213.25658050,N,02100.52128939,E,4,10,2.3,116.141,M,31.304,M,0.8,0350*5B
$GNGGA,130032.90,5213.25657941,N,02100.52128877,E,4,10,2.3,116.144,M,31.304,M,0.9,0350*53
$GNGGA,130033.00,5213.25657923,N,02100.52128946,E,4,10,2.3,116.145,M,31.304,M,1.0,0350*55
$GNGGA,130033.10,5213.25657990,N,02100.52129119,E,4,10,2.3,116.151,M,31.304,M,1.1,0350*5B
$GNGGA,130033.20,5213.25658192,N,02100.52128948,E,4,10,2.3,116.138,M,31.304,M,1.2,0350*5C
$GNGGA,130033.30,5213.25658157,N,02100.52128991,E,4,10,2.3,116.144,M,31.304,M,1.3,0350*5A
$GNGGA,130033.40,5213.25658000,N,02100.52129143,E,4,10,2.3,116.144,M,31.304,M,1.4,0350*5F
$GNGGA,130033.50,5213.25657944,N,02100.52129174,E,4,10,2.3,116.144,M,31.304,M,1.5,0350*5D
$GNGGA,130033.60,5213.25658269,N,02100.52129332,E,4,10,2.3,116.147,M,31.304,M,0.6,0350*54
$GNGGA,130033.70,5213.25658042,N,02100.52129287,E,4,10,2.3,116.144,M,31.304,M,0.7,0350*53
$GNGGA,130033.80,5213.25658148,N,02100.52129286,E,4,10,2.3,116.142,M,31.304,M,0.8,0350*5F
$GNGGA,130033.90,5213.25658027,N,02100.52129362,E,4,10,2.3,116.148,M,31.304,M,0.9,0350*56
$GNGGA,130034.00,5213.25658240,N,02100.52129349,E,4,10,2.3,116.144,M,31.304,M,1.0,0350*56
$GNGGA,130034.10,5213.25658006,N,02100.52129215,E,4,10,2.3,116.145,M,31.304,M,1.1,0350*5F
$GNGGA,130034.20,5213.25658175,N,02100.52129019,E,4,10,2.3,116.142,M,31.304,M,1.2,0350*53
$GNGGA,130034.30,5213.25658083,N,02100.52129082,E,4,10,2.3,116.143,M,31.304,M,1.3,0350*58
$GNGGA,130034.40,5213.25658077,N,02100.52129208,E,4,10,2.3,116.142,M,31.304,M,1.4,0350*52
$GNGGA,130034.50,5213.25658203,N,02100.52129188,E,4,10,2.3,116.144,M,31.304,M,1.5,0350*5E
$GNGGA,130034.60,5213.25658079,N,02100.52129147,E,4,10,2.3,116.153,M,31.304,M,0.6,0350*55
$GNGGA,130034.70,5213.25658146,N,02100.52129289,E,4,10,2.3,116.154,M,31.304,M,0.7,0350*5E
$GNGGA,130034.80,5213.25657749,N,02100.52129013,E,4,10,2.3,116.148,M,31.304,M,0.8,0350*54
$GNGGA,130034.90,5213.25657710,N,02100.52129189,E,4,10,2.3,116.153,M,31.304,M,0.9,0350*50
$GNGGA,130035.00,5213.25658008,N,02100.52129427,E,4,10,2.3,116.151,M,31.304,M,1.0,0350*52
$GNGGA,130035.10,5213.25657945,N,02100.52129195,E,4,10,2.3,116.148,M,31.304,M,1.1,0350*59
$GNGGA,130035.20,5213.25658049,N,02100.52129264,E,4,10,2.3,116.155,M,31.304,M,1.2,0350*52
$GNGGA,130035.30,5213.25657965,N,02100.52129327,E,4,10,2.3,116.153,M,31.304,M,1.3,0350*5A
$GNGGA,130035.40,5213.25658005,N,02100.52129143,E,4,10,2.3,116.146,M,31.304,M,1.4,0350*5E
$GNGGA,130035.50,5213.25658060,N,02100.52129263,E,4,10,2.3,116.152,M,31.304,M,1.5,0350*59
$GNGGA,130035.60,5213.25657831,N,02100.52128892,E,4,10,2.3,116.137,M,31.304,M,0.6,0350*5D
$GNGGA,130035.70,5213.25657966,N,02100.52129240,E,4,10,2.3,116.145,M,31.304,M,0.7,0350*5F
$GNGGA,130035.80,5213.25657968,N,02100.52129221,E,4,10,2.3,116.143,M,31.304,M,0.8,0350*50
$GNGGA,130035.90,5213.25657907,N,02100.52129209,E,4,10,2.3,116.147,M,31.304,M,0.9,0350*57
$GNGGA,130036.00,5213.25658012,N,02100.52129032,E,4,10,2.3,116.143,M,31.304,M,1.0,0350*59
$GNGGA,130036.10,5213.25657904,N,02100.52129214,E,4,10,2.3,116.146,M,31.304,M,1.1,0350*5B
$GNGGA,130036.20,5213.25657913,N,02100.52129312,E,4,10,2.3,116.146,M,31.304,M,1.2,0350*5A
$GNGGA,130036.30,5213.25657861,N,02100.52129149,E,4,10,2.3,116.149,M,31.304,M,1.3,0350*5D
$GNGGA,130036.40,5213.25658045,N,02100.52129281,E,4,10,2.3,116.151,M,31.304,M,1.4,0350*52
$GNGGA,130036.50,5213.25658043,N,02100.52129271,E,4,10,2.3,116.143,M,31.304,M,1.5,0350*58
$GNGGA,130036.60,5213.25658028,N,02100.52129376,E,4,10,2.3,116.148,M,31.304,M,1.6,0350*58
$GNGGA,130036.70,5213.25658136,N,02100.52128986,E,4,10,2.3,116.147,M,31.304,M,0.7,0350*5C
$GNGGA,130036.80,5213.25658062,N,02100.52129307,E,4,10,2.3,116.151,M,31.304,M,0.8,0350*59
$GNGGA,130036.90,5213.25658107,N,02100.52129211,E,4,10,2.3,116.152,M,31.304,M,0.9,0350*5E
$GNGGA,130037.00,5213.25658403,N,02100.52129166,E,4,10,2.3,116.148,M,31.304,M,1.0,0350*57
$GNGGA,130037.10,5213.25658104,N,02100.52129219,E,4,10,2.3,116.155,M,31.304,M,1.1,0350*52
$GNGGA,130037.20,5213.25658233,N,02100.52129199,E,4,10,2.3,116.148,M,31.304,M,1.2,0350*52
$GNGGA,130037.30,5213.25658381,N,02100.52129250,E,4,10,2.3,116.150,M,31.304,M,1.3,0350*55
$GNGGA,130037.40,5213.25658280,N,02100.52129153,E,4,10,2.3,116.147,M,31.304,M,1.4,0350*53
$GNGGA,130037.50,5213.25658470,N,02100.52129142,E,4,10,2.3,116.148,M,31.304,M,1.5,0350*55
$GNGGA,130037.60,5213.25658241,N,02100.52129510,E,4,10,2.3,116.156,M,31.304,M,1.6,0350*5D
$GNGGA,130037.70,5213.25657951,N,02100.52128967,E,4,10,2.3,116.143,M,31.304,M,1.7,0350*51
$GNGGA,130037.80,5213.25658418,N,02100.52129306,E,4,10,2.3,116.154,M,31.304,M,0.8,0350*55
$GNGGA,130037.90,5213.25658179,N,02100.52129420,E,4,10,2.3,116.152,M,31.304,M,0.9,0350*52
$GNGGA,130038.00,5213.25658251,N,02100.52129418,E,4,10,2.3,116.153,M,31.304,M,1.0,0350*5F
$GNGGA,130038.10,5213.25658323,N,02100.52129401,E,4,10,2.3,116.153,M,31.304,M,1.1,0350*53
$GNGGA,130038.20,5213.25658479,N,02100.52129404,E,4,10,2.3,116.153,M,31.304,M,1.2,0350*5E
$GNGGA,130038.30,5213.25658218,N,02100.52129260,E,4,10,2.3,116.153,M,31.304,M,1.3,0350*5B
$GNGGA,130038.40,5213.25658400,N,02100.52129536,E,4,10,2.3,116.153,M,31.304,M,1.4,0350*50
$GNGGA,130038.50,5213.25658144,N,02100.52129184,E,4,10,2.3,116.147,M,31.304,M,0.5,0350*5C
$GNGGA,130038.60,5213.25658127,N,02100.52129159,E,4,10,2.3,116.149,M,31.304,M,0.6,0350*57
$GNGGA,130038.70,5213.25658015,N,02100.52129101,E,4,10,2.3,116.147,M,31.304,M,0.7,0350*54
$GNGGA,130038.80,5213.25658102,N,02100.52129181,E,4,10,2.3,116.148,M,31.304,M,0.8,0350*54
$GNGGA,130038.90,5213.25658087,N,02100.52129264,E,4,10,2.3,116.152,M,31.304,M,0.9,0350*5B
$GNGGA,130039.00,5213.25658164,N,02100.52129289,E,4,10,2.3,116.149,M,31.304,M,1.0,0350*5E
$GNGGA,130039.10,5213.25658210,N,02100.52129256,E,4,10,2.3,116.153,M,31.304,M,1.1,0350*57
$GNGGA,130039.20,5213.25658287,N,02100.52129339,E,4,10,2.3,116.155,M,31.304,M,1.2,0350*57
$GNGGA,130039.30,5213.25658174,N,02100.52129107,E,4,10,2.3,116.154,M,31.304,M,1.3,0350*56
$GNGGA,130039.40,5213.25658111,N,02100.52129316,E,4,10,2.3,116.151,M,31.304,M,1.4,0350*52
$GNGGA,130039.50,5213.25658264,N,02100.52129289,E,4,10,2.3,116.154,M,31.304,M,1.5,0350*51
$GNGGA,130039.60,5213.25658263,N,02100.52129192,E,4,10,2.3,116.157,M,31.304,M,0.6,0350*5D
$GNGGA,130039.70,5213.25658549,N,02100.52129252,E,4,10,2.3,116.160,M,31.304,M,0.7,0350*59
$GNGGA,130039.80,5213.25658515,N,02100.52129330,E,4,10,2.3,116.160,M,31.304,M,0.8,0350*55
$GNGGA,130039.90,5213.25658545,N,02100.52129218,E,4,10,2.3,116.159,M,31.304,M,0.9,0350*51
$GNGGA,130040.00,5213.25658349,N,02100.52129293,E,4,10,2.3,116.158,M,31.304,M,1.0,0350*56
$GNGGA,130040.10,5213.25658623,N,02100.52129328,E,4,10,2.3,116.162,M,31.304,M,1.1,0350*57
$GNGGA,130040.20,5213.25658090,N,02100.52129244,E,4,10,2.3,116.149,M,31.304,M,1.2,0350*5B
$GNGGA,130040.30,5213.25658508,N,02100.52129465,E,4,10,2.3,116.159,M,31.304,M,1.3,0350*5B
$GNGGA,130040.40,5213.25658186,N,02100.52129069,E,4,10,2.3,116.144,M,31.304,M,1.4,0350*5D
$GNGGA,130040.50,5213.25658533,N,02100.52129416,E,4,10,2.3,116.159,M,31.304,M,1.5,0350*57
$GNGGA,130040.60,5213.25658412,N,02100.52129616,E,4,10,2.3,116.163,M,31.304,M,1.6,0350*5E
$GNGGA,130040.70,5213.25658026,N,02100.52129268,E,4,10,2.3,116.154,M,31.304,M,0.7,0350*55
$GNGGA,130040.80,5213.25657768,N,02100.52129309,E,4,10,2.3,116.146,M,31.304,M,0.8,0350*52
$GNGGA,130040.90,5213.25658001,N,02100.52129313,E,4,10,2.3,116.153,M,31.304,M,0.9,0350*5A
$GNGGA,130041.00,5213.25658044,N,02100.52129320,E,4,10,2.3,116.153,M,31.304,M,1.0,0350*5B
$GNGGA,130041.10,5213.25657935,N,02100.52129171,E,4,10,2.3,116.151,M,31.304,M,1.1,0350*5F
$GNGGA,130041.20,5213.25658082,N,02100.52129197,E,4,10,2.3,116.152,M,31.304,M,1.2,0350*5E
$GNGGA,130041.30,5213.25658149,N,02100.52129178,E,4,10,2.3,116.152,M,31.304,M,1.3,0350*59
$GNGGA,130041.40,5213.25658439,N,02100.52129339,E,4,10,2.3,116.161,M,31.304,M,0.4,0350*5D
$GNGGA,130041.50,5213.25658470,N,02100.52129368,E,4,10,2.3,116.161,M,31.304,M,0.5,0350*54
$GNGGA,130041.60,5213.25658570,N,02100.52129253,E,4,10,2.3,116.160,M,31.304,M,0.6,0350*5D
$GNGGA,130041.70,5213.25658334,N,02100.52129325,E,4,10,2.3,116.161,M,31.304,M,0.7,0350*5A
$GNGGA,130041.80,5213.25658522,N,02100.52129450,E,4,10,2.3,116.161,M,31.304,M,0.8,0350*5E
$GNGGA,130041.90,5213.25658362,N,02100.52129207,E,4,10,2.3,116.163,M,31.304,M,0.9,0350*5A
$GNGGA,130042.00,5213.25658494,N,02100.52129460,E,4,10,2.3,116.160,M,31.304,M,1.0,0350*52
$GNGGA,130042.10,5213.25658108,N,02100.52129285,E,4,10,2.3,116.158,M,31.304,M,1.1,0350*54
$GNGGA,130042.20,5213.25658439,N,02100.52129360,E,4,10,2.3,116.158,M,31.304,M,1.2,0350*59
$GNGGA,130042.30,5213.25658332,N,02100.52129208,E,4,10,2.3,116.153,M,31.304,M,1.3,0350*51
$GNGGA,130042.40,5213.25658207,N,02100.52129279,E,4,10,2.3,116.157,M,31.304,M,0.4,0350*55
$GNGGA,130042.50,5213.25658102,N,02100.52129178,E,4,10,2.3,116.153,M,31.304,M,0.5,0350*55
$GNGGA,130042.60,5213.25658450,N,02100.52129270,E,4,10,2.3,116.150,M,31.304,M,0.6,0350*5F
$GNGGA,130042.70,5213.25658184,N,02100.52128910,E,4,10,2.3,116.149,M,31.304,M,0.7,0350*57
$GNGGA,130042.80,5213.25658179,N,02100.52129359,E,4,10,2.3,116.157,M,31.304,M,0.8,0350*5C
$GNGGA,130042.90,5213.25658105,N,02100.52129415,E,4,10,2.3,116.157,M,31.304,M,0.9,0350*58
$GNGGA,130043.00,5213.25658135,N,02100.52129156,E,4,10,2.3,116.151,M,31.304,M,1.0,0350*5F
$GNGGA,130043.10,5213.25658282,N,02100.52129067,E,4,10,2.3,116.155,M,31.304,M,1.1,0350*57
$GNGGA,130043.20,5213.25658093,N,02100.52129261,E,4,10,2.3,116.153,M,31.304,M,1.2,0350*57
$GNGGA,130043.30,5213.25658047,N,02100.52128957,E,4,10,2.3,116.145,M,31.304,M,1.3,0350*56
$GNGGA,130043.40,5213.25658398,N,02100.52128908,E,4,10,2.3,116.150,M,31.304,M,1.4,0350*59
$GNGGA,130043.50,5213.25658031,N,02100.52129136,E,4,10,2.3,116.146,M,31.304,M,1.5,0350*5A
$GNGGA,130043.60,5213.25658167,N,02100.52129040,E,4,10,2.3,116.150,M,31.304,M,1.6,0350*5F
$GNGGA,130043.70,5213.25658010,N,02100.52129053,E,4,10,2.3,116.151,M,31.304,M,1.7,0350*5D
$GNGGA,130043.80,5213.25658513,N,02100.52129222,E,4,10,2.3,116.150,M,31.304,M,0.8,0350*5F
$GNGGA,130043.90,5213.25658682,N,02100.52129187,E,4,10,2.3,116.156,M,31.304,M,0.9,0350*5E
$GNGGA,130044.00,5213.25658467,N,02100.52129345,E,4,10,2.3,116.155,M,31.304,M,1.0,0350*5E
$GNGGA,130044.10,5213.25658166,N,02100.52129125,E,4,10,2.3,116.148,M,31.304,M,1.1,0350*52
$GNGGA,130044.20,5213.25658398,N,02100.52129268,E,4,10,2.3,116.151,M,31.304,M,1.2,0350*53
$GNGGA,130044.30,5213.25658575,N,02100.52129249,E,4,10,2.3,116.153,M,31.304,M,1.3,0350*57
$GNGGA,130044.40,5213.25658422,N,02100.52129082,E,4,10,2.3,116.146,M,31.304,M,1.4,0350*55
$GNGGA,130044.50,5213.25658195,N,02100.52129061,E,4,10,2.3,116.154,M,31.304,M,1.5,0350*52
$GNGGA,130044.60,5213.25658325,N,02100.52129413,E,4,10,2.3,116.150,M,31.304,M,0.6,0350*5F
$GNGGA,130044.70,5213.25658644,N,02100.52129181,E,4,10,2.3,116.149,M,31.304,M,0.7,0350*5B
$GNGGA,130044.80,5213.25658437,N,02100.52129533,E,4,10,2.3,116.156,M,31.304,M,0.8,0350*5E
$GNGGA,130044.90,5213.25658394,N,02100.52129316,E,4,10,2.3,116.147,M,31.304,M,0.9,0350*51
$GNGGA,130045.00,5213.25658525,N,02100.52129361,E,4,10,2.3,116.157,M,31.304,M,1.0,0350*5C
$GNGGA,130045.10,5213.25658295,N,02100.52129587,E,4,10,2.3,116.154,M,31.304,M,1.1,0350*5D
$GNGGA,130045.20,5213.25658429,N,02100.52129323,E,4,10,2.3,116.153,M,31.304,M,1.2,0350*53
$GNGGA,130045.30,5213.25658466,N,02100.52129425,E,4,10,2.3,116.154,M,31.304,M,1.3,0350*5E
$GNGGA,130045.40,5213.25658497,N,02100.52129522,E,4,10,2.3,116.159,M,31.304,M,1.4,0350*5B
$GNGGA,130045.50,5213.25658371,N,02100.52129384,E,4,10,2.3,116.149,M,31.304,M,0.5,0350*5E
$GNGGA,130045.60,5213.25658130,N,02100.52129183,E,4,10,2.3,116.150,M,31.304,M,0.6,0350*54
$GNGGA,130045.70,5213.25658336,N,02100.52129439,E,4,10,2.3,116.154,M,31.304,M,0.7,0350*50
$GNGGA,130045.80,5213.25658303,N,02100.52129425,E,4,10,2.3,116.155,M,31.304,M,0.8,0350*5A
$GNGGA,130045.90,5213.25658293,N,02100.52129288,E,4,10,2.3,116.152,M,31.304,M,0.9,0350*54
$GNGGA,130046.00,5213.25658288,N,02100.52129360,E,4,10,2.3,116.156,M,31.304,M,1.0,0350*5F
$GNGGA,130046.10,5213.25658281,N,02100.52129416,E,4,10,2.3,116.155,M,31.304,M,1.1,0350*53
$GNGGA,130046.20,5213.25658286,N,02100.52129202,E,4,10,2.3,116.155,M,31.304,M,1.2,0350*57
$GNGGA,130046.30,5213.25658293,N,02100.52129392,E,4,10,2.3,116.158,M,31.304,M,1.3,0350*56
$GNGGA,130046.40,5213.25658314,N,02100.52129201,E,4,10,2.3,116.146,M,31.304,M,1.4,0350*5C
$GNGGA,130046.50,5213.25658324,N,02100.52129463,E,4,10,2.3,116.159,M,31.304,M,1.5,0350*53
$GNGGA,130046.60,5213.25658560,N,02100.52129609,E,4,10,2.3,116.157,M,31.304,M,0.6,0350*54
$GNGGA,130046.70,5213.25658573,N,02100.52129595,E,4,10,2.3,116.154,M,31.304,M,0.7,0350*53
$GNGGA,130046.80,5213.25658508,N,02100.52129513,E,4,10,2.3,116.154,M,31.304,M,0.8,0350*51
$GNGGA,130046.90,5213.25658405,N,02100.52129242,E,4,10,2.3,116.151,M,31.304,M,0.9,0350*5B
$GNGGA,130047.00,5213.25658522,N,02100.52129517,E,4,10,2.3,116.150,M,31.304,M,1.0,0350*59
$GNGGA,130047.10,5213.25658544,N,02100.52129737,E,4,10,2.3,116.160,M,31.304,M,1.1,0350*5A
$GNGGA,130047.20,5213.25658393,N,02100.52129243,E,4,10,2.3,116.150,M,31.304,M,1.2,0350*53
$GNGGA,130047.30,5213.25658671,N,02100.52129534,E,4,10,2.3,116.160,M,31.304,M,1.3,0350*5E
$GNGGA,130047.40,5213.25658545,N,02100.52129281,E,4,10,2.3,116.154,M,31.304,M,1.4,0350*54
$GNGGA,130047.50,5213.25658387,N,02100.52129401,E,4,10,2.3,116.156,M,31.304,M,1.5,0350*50
$GNGGA,130047.60,5213.25658545,N,02100.52129210,E,4,10,2.3,116.151,M,31.304,M,0.6,0350*58
$GNGGA,130047.70,5213.25658456,N,02100.52128924,E,4,10,2.3,116.150,M,31.304,M,0.7,0350*57
$GNGGA,130047.80,5213.25658592,N,02100.52129365,E,4,10,2.3,116.160,M,31.304,M,0.8,0350*53
$GNGGA,130047.90,5213.25658483,N,02100.52129426,E,4,10,2.3,116.156,M,31.304,M,0.9,0350*57
$GNGGA,130048.00,5213.25658536,N,02100.52129214,E,4,10,2.3,116.157,M,31.304,M,1.0,0350*50
$GNGGA,130048.10,5213.25658469,N,02100.52129230,E,4,10,2.3,116.156,M,31.304,M,1.1,0350*5C
$GNGGA,130048.20,5213.25658519,N,02100.52129433,E,4,10,2.3,116.156,M,31.304,M,1.2,0350*5F
$GNGGA,130048.30,5213.25658353,N,02100.52129125,E,4,10,2.3,116.152,M,31.304,M,1.3,0350*51
$GNGGA,130048.40,5213.25658553,N,02100.52129217,E,4,10,2.3,116.152,M,31.304,M,1.4,0350*55
$GNGGA,130048.50,5213.25658470,N,02100.52129254,E,4,10,2.3,116.154,M,31.304,M,1.5,0350*54
$GNGGA,130048.60,5213.25658765,N,02100.52129111,E,4,10,2.3,116.156,M,31.304,M,0.6,0350*52
$GNGGA,130048.70,5213.25658438,N,02100.52129241,E,4,10,2.3,116.156,M,31.304,M,0.7,0350*5F
$GNGGA,130048.80,5213.25658483,N,02100.52129199,E,4,10,2.3,116.146,M,31.304,M,0.8,0350*58
$GNGGA,130048.90,5213.25658569,N,02100.52129288,E,4,10,2.3,116.157,M,31.304,M,0.9,0350*5E
$GNGGA,130049.00,5213.25658489,N,02100.52129274,E,4,10,2.3,116.154,M,31.304,M,1.0,0350*51
$GNGGA,130049.10,5213.25658834,N,02100.52129319,E,4,10,2.3,116.159,M,31.304,M,1.1,0350*5C
$GNGGA,130049.20,5213.25658469,N,02100.52129152,E,4,10,2.3,116.148,M,31.304,M,1.2,0350*55
$GNGGA,130049.30,5213.25658559,N,02100.52129271,E,4,10,2.3,116.154,M,31.304,M,1.3,0350*58
$GNGGA,130049.40,5213.25658561,N,02100.52129273,E,4,10,2.3,116.155,M,31.304,M,1.4,0350*50
$GNGGA,130049.50,5213.25658540,N,02100.52129315,E,4,10,2.3,116.151,M,31.304,M,1.5,0350*56
$GNGGA,130049.60,5213.25658535,N,02100.52129314,E,4,10,2.3,116.154,M,31.304,M,1.6,0350*50
$GNGGA,130049.70,5213.25658581,N,02100.52129351,E,4,10,2.3,116.155,M,31.304,M,0.7,0350*5E
$GNGGA,130049.80,5213.25658570,N,02100.52129072,E,4,10,2.3,116.154,M,31.304,M,0.8,0350*53
$GNGGA,130049.90,5213.25658523,N,02100.52129332,E,4,10,2.3,116.161,M,31.304,M,0.9,0350*54
$GNGGA,130050.00,5213.25658615,N,02100.52129265,E,4,10,2.3,116.153,M,31.304,M,1.0,0350*59
$GNGGA,130050.10,5213.25658660,N,02100.52129156,E,4,10,2.3,116.156,M,31.304,M,1.1,0350*5D
$GNGGA,130050.20,5213.25658712,N,02100.52129153,E,4,10,2.3,116.154,M,31.304,M,1.2,0350*5E
$GNGGA,130050.30,5213.25658738,N,02100.52129208,E,4,10,2.3,116.158,M,31.304,M,1.3,0350*57
$GNGGA,130050.40,5213.25658517,N,02100.52129273,E,4,10,2.3,116.149,M,31.304,M,1.4,0350*54
$GNGGA,130050.50,5213.25658699,N,02100.52129223,E,4,10,2.3,116.156,M,31.304,M,1.5,0350*5A
$GNGGA,130050.60,5213.25658551,N,02100.52129050,E,4,10,2.3,116.147,M,31.304,M,0.6,0350*5A
$GNGGA,130050.70,5213.25658758,N,02100.52128957,E,4,10,2.3,116.152,M,31.304,M,0.7,0350*5A
$GNGGA,130050.80,5213.25658869,N,02100.52129103,E,4,10,2.3,116.158,M,31.304,M,0.8,0350*55
$GNGGA,130050.90,5213.25658617,N,02100.52129028,E,4,10,2.3,116.158,M,31.304,M,0.9,0350*5A
$GNGGA,130051.00,5213.25658793,N,02100.52129128,E,4,10,2.3,116.157,M,31.304,M,1.0,0350*59
$GNGGA,130051.10,5213.25658805,N,02100.52129119,E,4,10,2.3,116.152,M,31.304,M,1.1,0350*5E
$GNGGA,130051.20,5213.25658615,N,02100.52128678,E,4,10,2.3,116.149,M,31.304,M,1.2,0350*5A
$GNGGA,130051.30,5213.25658405,N,02100.52128982,E,4,10,2.3,116.157,M,31.304,M,1.3,0350*5C
$GNGGA,130051.40,5213.25658943,N,02100.52128858,E,4,10,2.3,116.149,M,31.304,M,0.4,0350*5B
$GNGGA,130051.50,5213.25658896,N,02100.52129117,E,4,10,2.3,116.145,M,31.304,M,0.5,0350*5D
$GNGGA,130051.60,5213.25659021,N,02100.52129092,E,4,10,2.3,116.156,M,31.304,M,0.6,0350*56
$GNGGA,130051.70,5213.25658979,N,02100.52128839,E,4,10,2.3,116.144,M,31.304,M,0.7,0350*58
$GNGGA,130051.80,5213.25658989,N,02100.52128929,E,4,10,2.3,116.148,M,31.304,M,0.8,0350*5B
$GNGGA,130051.90,5213.25659100,N,02100.52128911,E,4,10,2.3,116.140,M,31.304,M,0.9,0350*50
$GNGGA,130052.00,5213.25659316,N,02100.52129351,E,4,10,2.3,116.149,M,31.304,M,1.0,0350*51
$GNGGA,130052.10,5213.25659165,N,02100.52129193,E,4,10,2.3,116.148,M,31.304,M,1.1,0350*5A
$GNGGA,130052.20,5213.25659305,N,02100.52129315,E,4,10,2.3,116.153,M,31.304,M,1.2,0350*58
$GNGGA,130052.30,5213.25659315,N,02100.52129060,E,4,10,2.3,116.153,M,31.304,M,1.3,0350*58
$GNGGA,130052.40,5213.25659282,N,02100.52128766,E,4,10,2.3,116.144,M,31.304,M,1.4,0350*51
$GNGGA,130052.50,5213.25659147,N,02100.52128369,E,4,10,2.3,116.143,M,31.304,M,1.5,0350*57
$GNGGA,130052.60,5213.25658361,N,02100.52127992,E,4,10,2.3,116.146,M,31.304,M,0.6,0350*55
$GNGGA,130052.70,5213.25658322,N,02100.52127342,E,4,10,2.3,116.148,M,31.304,M,0.7,0350*5B
$GNGGA,130052.80,5213.25658319,N,02100.52126580,E,4,10,2.3,116.144,M,31.304,M,0.8,0350*56
$GNGGA,130052.90,5213.25658944,N,02100.52125944,E,4,10,2.3,116.153,M,31.304,M,0.9,0350*55
$GNGGA,130053.00,5213.25658751,N,02100.52124984,E,4,10,2.3,116.154,M,31.304,M,1.0,0350*55
$GNGGA,130053.10,5213.25658850,N,02100.52123678,E,4,10,2.3,116.146,M,31.304,M,1.1,0350*53
$GNGGA,130053.20,5213.25658694,N,02100.52122922,E,4,10,2.3,116.148,M,31.304,M,1.2,0350*5A
$GNGGA,130053.30,5213.25658956,N,02100.52121040,E,4,10,2.3,116.120,M,31.304,M,1.3,0350*5B
$GNGGA,130053.40,5213.25658872,N,02100.52119603,E,4,10,2.3,116.126,M,31.304,M,1.4,0350*50
$GNGGA,130053.50,5213.25659634,N,02100.52117587,E,4,10,2.3,116.131,M,31.304,M,1.5,0350*5A
$GNGGA,130053.60,5213.25659258,N,02100.52115266,E,4,10,2.3,116.139,M,31.304,M,0.6,0350*57
$GNGGA,130053.70,5213.25659403,N,02100.52113097,E,4,10,2.3,116.147,M,31.304,M,0.7,0350*5C
$GNGGA,130053.80,5213.25657616,N,02100.52109935,E,4,10,2.3,116.135,M,31.304,M,0.8,0350*5B
$GNGGA,130053.90,5213.25657729,N,02100.52109115,E,4,10,2.3,116.143,M,31.304,M,0.9,0350*5D
$GNGGA,130054.00,5213.25658595,N,02100.52106915,E,4,10,2.3,116.143,M,31.304,M,1.0,0350*56
$GNGGA,130054.10,5213.25659077,N,02100.52103876,E,4,10,2.3,116.131,M,31.304,M,1.1,0350*5A
$GNGGA,130054.20,5213.25659087,N,02100.52100634,E,4,10,2.3,116.090,M,31.304,M,1.2,0350*54
$GNGGA,130054.30,5213.25660913,N,02100.52099020,E,4,10,2.3,116.144,M,31.304,M,1.3,0350*50
$GNGGA,130054.40,5213.25660330,N,02100.52095625,E,4,10,2.3,116.121,M,31.304,M,1.4,0350*57
$GNGGA,130054.50,5213.25659158,N,02100.52090032,E,4,10,2.3,116.133,M,31.304,M,0.5,0350*56
$GNGGA,130054.60,5213.25660098,N,02100.52086551,E,4,10,2.3,116.143,M,31.304,M,0.6,0350*51
$GNGGA,130054.70,5213.25659920,N,02100.52084873,E,4,10,2.3,116.086,M,31.304,M,0.7,0350*56
$GNGGA,130054.80,5213.25659344,N,02100.52079301,E,4,10,2.3,116.052,M,31.304,M,0.8,0350*5B
$GNGGA,130054.90,5213.25659345,N,02100.52076302,E,4,10,2.3,116.094,M,31.304,M,0.9,0350*5C
$GNGGA,130055.00,5213.25659395,N,02100.52073064,E,4,10,2.3,116.096,M,31.304,M,1.0,0350*55
$GNGGA,130055.10,5213.25659717,N,02100.52068800,E,4,10,2.3,116.085,M,31.304,M,1.1,0350*59
$GNGGA,130055.20,5213.25660891,N,02100.52064296,E,4,10,2.3,116.106,M,31.304,M,1.2,0350*51
$GNGGA,130055.30,5213.25661025,N,02100.52059840,E,4,10,2.3,116.084,M,31.304,M,1.3,0350*53
$GNGGA,130055.40,5213.25660540,N,02100.52057349,E,4,10,2.3,116.089,M,31.304,M,1.4,0350*55
$GNGGA,130055.50,5213.25660646,N,02100.52051107,E,4,10,2.3,116.102,M,31.304,M,1.5,0350*5C
$GNGGA,130055.60,5213.25660554,N,02100.52048696,E,4,10,2.3,116.106,M,31.304,M,0.6,0350*5E
$GNGGA,130055.70,5213.25661193,N,02100.52046376,E,4,10,2.3,116.123,M,31.304,M,0.7,0350*52
$GNGGA,130055.80,5213.25660694,N,02100.52042335,E,4,10,2.3,116.185,M,31.304,M,0.8,0350*5C
$GNGGA,130055.90,5213.25661791,N,02100.52036926,E,4,10,2.3,116.129,M,31.304,M,0.9,0350*54
$GNGGA,130056.00,5213.25661197,N,02100.52031924,E,4,10,2.3,116.104,M,31.304,M,1.0,0350*5C
$GNGGA,130056.10,5213.25662108,N,02100.52027850,E,4,10,2.3,116.109,M,31.304,M,1.1,0350*51
$GNGGA,130056.20,5213.25662571,N,02100.52025368,E,4,10,2.3,116.131,M,31.304,M,1.2,0350*52
$GNGGA,130056.30,5213.25662791,N,02100.52019580,E,4,10,2.3,116.157,M,31.304,M,1.3,0350*51
$GNGGA,130056.40,5213.25663226,N,02100.52014165,E,4,10,2.3,116.109,M,31.304,M,1.4,0350*50
$GNGGA,130056.50,5213.25663648,N,02100.52009731,E,4,10,2.3,116.116,M,31.304,M,1.5,0350*59
$GNGGA,130056.60,5213.25663383,N,02100.52006276,E,4,10,2.3,116.032,M,31.304,M,0.6,0350*54
$GNGGA,130056.70,5213.25663823,N,02100.52001961,E,4,10,2.3,116.053,M,31.304,M,0.7,0350*58
$GNGGA,130056.80,5213.25666169,N,02100.51998538,E,4,10,2.3,116.125,M,31.304,M,0.8,0350*50
$GNGGA,130056.90,5213.25665952,N,02100.51992283,E,4,10,2.3,116.025,M,31.304,M,0.9,0350*5F
$GNGGA,130057.00,5213.25667148,N,02100.51986369,E,4,10,2.3,116.099,M,31.304,M,1.0,0350*59
$GNGGA,130057.10,5213.25667560,N,02100.51982243,E,4,10,2.3,116.139,M,31.304,M,1.1,0350*51
$GNGGA,130057.20,5213.25666029,N,02100.51978023,E,4,10,2.3,116.105,M,31.304,M,1.2,0350*56
$GNGGA,130057.30,5213.25666147,N,02100.51969686,E,4,10,2.3,116.094,M,31.304,M,1.3,0350*5F
$GNGGA,130057.40,5213.25667036,N,02100.51966375,E,4,10,2.3,116.145,M,31.304,M,1.4,0350*52
$GNGGA,130057.50,5213.25664524,N,02100.51961795,E,4,10,2.3,116.083,M,31.304,M,1.5,0350*51
$GNGGA,130057.60,5213.25665820,N,02100.51954460,E,4,10,2.3,116.067,M,31.304,M,1.6,0350*5C
$GNGGA,130057.70,5213.25664406,N,02100.51946457,E,4,10,2.3,116.033,M,31.304,M,0.7,0350*52
$GNGGA,130057.80,5213.25664303,N,02100.51940675,E,4,10,2.3,116.076,M,31.304,M,0.8,0350*55
$GNGGA,130057.90,5213.25664932,N,02100.51935913,E,4,10,2.3,116.062,M,31.304,M,0.9,0350*55
$GNGGA,130058.00,5213.25666048,N,02100.51932570,E,4,10,2.3,116.136,M,31.304,M,1.0,0350*53
$GNGGA,130058.10,5213.25665384,N,02100.51927465,E,4,10,2.3,116.152,M,31.304,M,1.1,0350*50
$GNGGA,130058.20,5213.25666419,N,02100.51920907,E,4,10,2.3,116.158,M,31.304,M,1.2,0350*54
$GNGGA,130058.30,5213.25667051,N,02100.51915213,E,4,10,2.3,116.179,M,31.304,M,1.3,0350*56
$GNGGA,130058.40,5213.25665937,N,02100.51908050,E,4,10,2.3,116.094,M,31.304,M,1.4,0350*56
$GNGGA,130058.50,5213.25665967,N,02100.51903492,E,4,10,2.3,116.094,M,31.304,M,1.5,0350*52
$GNGGA,130058.60,5213.25666764,N,02100.51899714,E,4,10,2.3,116.165,M,31.304,M,1.6,0350*5C
$GNGGA,130058.70,5213.25664363,N,02100.51894861,E,4,10,2.3,116.197,M,31.304,M,0.7,0350*51
$GNGGA,130058.80,5213.25663831,N,02100.51889516,E,4,10,2.3,116.183,M,31.304,M,0.8,0350*5E
$GNGGA,130058.90,5213.25664010,N,02100.51884188,E,4,10,2.3,116.128,M,31.304,M,0.9,0350*5D
$GNGGA,130059.00,5213.25667005,N,02100.51879950,E,4,10,2.3,116.168,M,31.304,M,1.0,0350*51
$GNGGA,130059.10,5213.25667798,N,02100.51876153,E,4,10,2.3,116.156,M,31.304,M,1.1,0350*5B
$GNGGA,130059.20,5213.25667136,N,02100.51869607,E,4,10,2.3,116.120,M,31.304,M,1.2,0350*50
$GNGGA,130059.30,5213.25665899,N,02100.51862389,E,4,10,2.3,116.124,M,31.304,M,1.3,0350*52
$GNGGA,130059.40,5213.25666418,N,02100.51858677,E,4,10,2.3,116.144,M,31.304,M,1.4,0350*5F
$GNGGA,130059.50,5213.25665677,N,02100.51853328,E,4,10,2.3,116.116,M,31.304,M,1.5,0350*54
$GNGGA,130059.60,5213.25666354,N,02100.51846063,E,4,10,2.3,116.176,M,31.304,M,0.6,0350*5C
$GNGGA,130059.70,5213.25667753,N,02100.51841636,E,4,10,2.3,116.224,M,31.304,M,0.7,0350*5B
$GNGGA,130059.80,5213.25668208,N,02100.51837372,E,4,10,2.3,116.240,M,31.304,M,0.8,0350*59
$GNGGA,130059.90,5213.25668901,N,02100.51832805,E,4,10,2.3,116.283,M,31.304,M,0.9,0350*5A
$GNGGA,130100.00,5213.25668948,N,02100.51826924,E,4,10,2.3,116.181,M,31.304,M,1.0,0350*5D
$GNGGA,130100.10,5213.25668872,N,02100.51822150,E,4,10,2.3,116.115,M,31.304,M,1.1,0350*57
$GNGGA,130100.20,5213.25667794,N,02100.51817603,E,4,10,2.3,116.160,M,31.304,M,1.2,0350*5A
$GNGGA,130100.30,5213.25666324,N,02100.51810134,E,4,10,2.3,116.105,M,31.304,M,1.3,0350*53
$GNGGA,130100.40,5213.25668564,N,02100.51811137,E,4,10,2.3,116.217,M,31.304,M,1.4,0350*5D
$GNGGA,130100.50,5213.25669133,N,02100.51803683,E,4,10,2.3,116.133,M,31.304,M,1.5,0350*54
$GNGGA,130100.60,5213.25669586,N,02100.51800217,E,4,10,2.3,116.161,M,31.304,M,1.6,0350*53
$GNGGA,130100.70,5213.25671567,N,02100.51790891,E,4,09,2.7,116.167,M,31.304,M,0.7,0350*5C
$GNGGA,130100.80,5213.25672012,N,02100.51787044,E,4,09,2.7,116.156,M,31.304,M,0.8,0350*5C
$GNGGA,130100.90,5213.25669163,N,02100.51783693,E,4,09,2.7,116.188,M,31.304,M,0.9,0350*5A
$GNGGA,130101.00,5213.25667070,N,02100.51776662,E,4,09,2.7,116.115,M,31.304,M,1.0,0350*57
$GNGGA,130101.10,5213.25666497,N,02100.51771954,E,4,09,2.7,116.113,M,31.304,M,1.1,0350*50
$GNGGA,130101.20,5213.25667478,N,02100.51767158,E,4,09,2.7,116.129,M,31.304,M,1.2,0350*5A
$GNGGA,130101.30,5213.25669296,N,02100.51762959,E,4,09,2.7,116.192,M,31.304,M,1.3,0350*5E
$GNGGA,130101.40,5213.25668271,N,02100.51754722,E,4,09,2.7,116.070,M,31.304,M,1.4,0350*5C
$GNGGA,130101.50,5213.25667827,N,02100.51750622,E,4,09,2.7,116.100,M,31.304,M,1.5,0350*59
$GNGGA,130101.60,5213.25669032,N,02100.51748786,E,4,09,2.7,116.215,M,31.304,M,0.6,0350*5B
$GNGGA,130101.70,5213.25670436,N,02100.51744738,E,4,09,2.7,116.243,M,31.304,M,0.7,0350*59
$GNGGA,130101.80,5213.25669821,N,02100.51738939,E,4,09,2.7,116.208,M,31.304,M,0.8,0350*50
$GNGGA,130101.90,5213.25668761,N,02100.51735599,E,4,09,2.7,116.213,M,31.304,M,0.9,0350*5B
$GNGGA,130102.00,5213.25669663,N,02100.51731869,E,4,09,2.7,116.230,M,31.304,M,1.0,0350*5C
$GNGGA,130102.10,5213.25669907,N,02100.51727331,E,4,09,2.7,116.243,M,31.304,M,1.1,0350*54
$GNGGA,130102.20,5213.25669250,N,02100.51722097,E,4,09,2.7,116.240,M,31.304,M,1.2,0350*54
$GNGGA,130102.30,5213.25670732,N,02100.51717396,E,4,09,2.7,116.253,M,31.304,M,1.3,0350*5B
$GNGGA,130102.40,5213.25670078,N,02100.51712103,E,4,09,2.7,116.178,M,31.304,M,1.4,0350*53
$GNGGA,130102.50,5213.25669324,N,02100.51706543,E,4,09,2.7,116.195,M,31.304,M,1.5,0350*57
$GNGGA,130102.60,5213.25673171,N,02100.51706869,E,4,09,2.7,116.334,M,31.304,M,0.6,0350*53
$GNGGA,130102.70,5213.25673211,N,02100.51700485,E,4,09,2.7,116.260,M,31.304,M,0.7,0350*5E
$GNGGA,130102.80,5213.25674236,N,02100.51697081,E,4,09,2.7,116.282,M,31.304,M,0.8,0350*5F
$GNGGA,130102.90,5213.25674460,N,02100.51696328,E,4,09,2.7,116.323,M,31.304,M,0.9,0350*51
$GNGGA,130103.00,5213.25675410,N,02100.51694103,E,4,09,2.7,116.376,M,31.304,M,1.0,0350*5E
$GNGGA,130103.10,5213.25676111,N,02100.51691689,E,4,09,2.7,116.423,M,31.304,M,1.1,0350*5E
$GNGGA,130103.20,5213.25674745,N,02100.51687712,E,4,09,2.7,116.420,M,31.304,M,1.2,0350*5C
$GNGGA,130103.30,5213.25676108,N,02100.51682262,E,4,09,2.7,116.428,M,31.304,M,1.3,0350*5E
$GNGGA,130103.40,5213.25675065,N,02100.51674335,E,4,09,2.7,116.365,M,31.304,M,1.4,0350*53
$GNGGA,130103.50,5213.25674723,N,02100.51669314,E,4,09,2.7,116.336,M,31.304,M,1.5,0350*5E
$GNGGA,130103.60,5213.25674253,N,02100.51660091,E,4,09,2.7,116.316,M,31.304,M,0.6,0350*58
$GNGGA,130103.70,5213.25674210,N,02100.51655750,E,4,09,2.7,116.338,M,31.304,M,0.7,0350*5F
$GNGGA,130103.80,5213.25673364,N,02100.51655863,E,4,09,2.7,116.360,M,31.304,M,0.8,0350*58
$GNGGA,130103.90,5213.25676550,N,02100.51640349,E,4,09,2.7,116.261,M,31.304,M,0.9,0350*5B
$GNGGA,130104.00,5213.25674085,N,02100.51644896,E,4,09,2.7,116.352,M,31.304,M,1.0,0350*5E
$GNGGA,130104.10,5213.25675603,N,02100.51640934,E,4,09,2.7,116.449,M,31.304,M,1.1,0350*57
$GNGGA,130104.20,5213.25674816,N,02100.51636708,E,4,09,2.7,116.453,M,31.304,M,1.2,0350*57
$GNGGA,130104.30,5213.25675755,N,02100.51634472,E,4,09,2.7,116.491,M,31.304,M,1.3,0350*5C
$GNGGA,130104.40,5213.25674111,N,02100.51627589,E,4,09,2.7,116.389,M,31.304,M,1.4,0350*52
$GNGGA,130104.50,5213.25676563,N,02100.51622431,E,4,09,2.7,116.515,M,31.304,M,1.5,0350*55
$GNGGA,130104.60,5213.25676703,N,02100.51618221,E,4,09,2.7,116.439,M,31.304,M,1.6,0350*50
$GNGGA,130104.70,5213.25676337,N,02100.51608946,E,4,09,2.7,116.349,M,31.304,M,0.7,0350*59
$GNGGA,130104.80,5213.25676457,N,02100.51604259,E,4,09,2.7,116.352,M,31.304,M,0.8,0350*5B
$GNGGA,130104.90,5213.25675397,N,02100.51595504,E,4,09,2.7,116.364,M,31.304,M,0.9,0350*52
$GNGGA,130105.00,5213.25676665,N,02100.51590363,E,4,09,2.7,116.405,M,31.304,M,1.0,0350*5B
$GNGGA,130105.10,5213.25677064,N,02100.51583108,E,4,09,2.7,116.358,M,31.304,M,1.1,0350*5F
$GNGGA,130105.20,5213.25677357,N,02100.51580700,E,4,09,2.7,116.417,M,31.304,M,1.2,0350*5D
$GNGGA,130105.30,5213.25676839,N,02100.51572257,E,4,09,2.7,116.302,M,31.304,M,1.3,0350*56
$GNGGA,130105.40,5213.25679614,N,02100.51569811,E,4,09,2.7,116.351,M,31.304,M,1.4,0350*5C
$GNGGA,130105.50,5213.25679686,N,02100.51564902,E,4,09,2.7,116.467,M,31.304,M,1.5,0350*5B
$GNGGA,130105.60,5213.25679139,N,02100.51553972,E,4,09,2.7,116.399,M,31.304,M,0.6,0350*5C
$GNGGA,130105.70,5213.25679434,N,02100.51549193,E,4,09,2.7,116.399,M,31.304,M,0.7,0350*58
$GNGGA,130105.80,5213.25678280,N,02100.51547406,E,4,09,2.7,116.484,M,31.304,M,0.8,0350*5C
$GNGGA,130105.90,5213.25681027,N,02100.51537574,E,4,09,2.7,116.415,M,31.304,M,0.9,0350*5E
$GNGGA,130106.00,5213.25680058,N,02100.51534684,E,4,09,2.7,116.484,M,31.304,M,1.0,0350*52
$GNGGA,130106.10,5213.25680153,N,02100.51527315,E,4,09,2.7,116.444,M,31.304,M,1.1,0350*5B
$GNGGA,130106.20,5213.25679707,N,02100.51520424,E,4,09,2.7,116.368,M,31.304,M,1.2,0350*51
$GNGGA,130106.30,5213.25679122,N,02100.51526798,E,4,09,2.7,116.605,M,31.304,M,1.3,0350*5C
$GNGGA,130106.40,5213.25681447,N,02100.51575922,E,4,09,2.7,117.331,M,31.304,M,1.4,0350*57
$GNGGA,130106.50,5213.25680665,N,02100.51506156,E,4,09,2.7,116.495,M,31.304,M,1.5,0350*53
$GNGGA,130106.60,5213.25680222,N,02100.51500193,E,4,09,2.7,116.307,M,31.304,M,0.6,0350*56
$GNGGA,130106.70,5213.25682990,N,02100.51495035,E,4,09,2.7,116.382,M,31.304,M,0.7,0350*5B
$GNGGA,130106.80,5213.25682266,N,02100.51481285,E,4,09,2.7,116.198,M,31.304,M,0.8,0350*5C
$GNGGA,130106.90,5213.25682432,N,02100.51481054,E,4,09,2.7,116.288,M,31.304,M,0.9,0350*57
$GNGGA,130107.00,5213.25681476,N,02100.51475469,E,4,09,2.7,116.269,M,31.304,M,1.0,0350*5A
$GNGGA,130107.10,5213.25680849,N,02100.51471863,E,4,09,2.7,116.278,M,31.304,M,1.1,0350*59
$GNGGA,130107.20,5213.25681724,N,02100.51470146,E,4,11,4.6,116.423,M,31.304,M,1.2,0350*55
$GNGGA,130107.30,5213.25682453,N,02100.51450711,E,4,11,4.6,116.240,M,31.304,M,1.3,0350*50
$GNGGA,130107.40,5213.25682706,N,02100.51453203,E,4,11,4.6,116.328,M,31.304,M,1.4,0350*59
$GNGGA,130107.50,5213.25683503,N,02100.51440797,E,4,11,4.6,116.240,M,31.304,M,1.5,0350*5A
$GNGGA,130107.60,5213.25683569,N,02100.51431288,E,4,07,4.5,116.226,M,31.304,M,0.6,0350*5E
$GNGGA,130107.70,5213.25682989,N,02100.51424117,E,4,07,4.5,116.245,M,31.304,M,0.7,0350*59
$GNGGA,130107.80,5213.25682338,N,02100.51424190,E,4,07,4.5,116.298,M,31.304,M,0.8,0350*56
$GNGGA,130107.90,5213.25682923,N,02100.51409260,E,4,07,4.5,116.219,M,31.304,M,0.9,0350*5C
$GNGGA,130108.00,5213.25730116,N,02100.51487851,E,2,18,0.7,118.359,M,31.304,M,1.0,0350*5F
$GNGGA,130108.10,5213.25729549,N,02100.51481240,E,2,18,0.7,118.355,M,31.304,M,1.0,0350*58
$GNGGA,130108.20,5213.25725350,N,02100.51470670,E,2,18,0.7,118.364,M,31.304,M,1.2,0350*50
$GNGGA,130108.30,5213.25725220,N,02100.51463018,E,2,18,0.7,118.389,M,31.304,M,1.2,0350*5E
$GNGGA,130108.40,5213.25721972,N,02100.51453463,E,2,19,0.6,118.387,M,31.304,M,1.4,0350*52
$GNGGA,130108.50,5213.25721450,N,02100.51446806,E,2,19,0.6,118.384,M,31.304,M,1.4,0350*56
$GNGGA,130108.60,5213.25720718,N,02100.51438121,E,2,19,0.6,118.385,M,31.304,M,0.6,0350*5C
$GNGGA,130108.70,5213.25720860,N,02100.51430811,E,2,18,0.6,118.407,M,31.304,M,0.6,0350*53
$GNGGA,130108.80,5213.25719862,N,02100.51422140,E,2,19,0.6,118.393,M,31.304,M,0.8,0350*5F
$GNGGA,130108.90,5213.25720432,N,02100.51416001,E,2,18,0.6,118.391,M,31.304,M,0.8,0350*5D
$GNGGA,130109.00,5213.25721945,N,02100.51408018,E,2,19,0.6,118.376,M,31.304,M,1.0,0350*5F
$GNGGA,130109.10,5213.25721988,N,02100.51400922,E,2,19,0.6,118.369,M,31.304,M,1.0,0350*59
$GNGGA,130109.20,5213.25723594,N,02100.51391476,E,2,19,0.6,118.349,M,31.304,M,1.2,0350*5A
$GNGGA,130109.30,5213.25722854,N,02100.51384814,E,2,19,0.6,118.349,M,31.304,M,1.2,0350*57
$GNGGA,130109.40,5213.25722461,N,02100.51378950,E,2,19,0.6,118.339,M,31.304,M,0.4,0350*58
$GNGGA,130109.50,5213.25724014,N,02100.51371926,E,2,19,0.6,118.334,M,31.304,M,0.4,0350*5C
$GNGGA,130109.60,5213.25725419,N,02100.51365346,E,2,19,0.6,118.320,M,31.304,M,0.6,0350*59
$GNGGA,130109.70,5213.25725791,N,02100.51358269,E,2,19,0.6,118.331,M,31.304,M,0.6,0350*59
$GNGGA,130109.80,5213.25727227,N,02100.51350696,E,2,19,0.6,118.314,M,31.304,M,0.8,0350*59
$GNGGA,130109.90,5213.25727967,N,02100.51344071,E,2,19,0.6,118.315,M,31.304,M,0.8,0350*5C
$GNGGA,130110.00,5213.25728395,N,02100.51336735,E,2,19,0.6,118.303,M,31.304,M,1.0,0350*59
$GNGGA,130110.10,5213.25729339,N,02100.51329841,E,2,19,0.6,118.335,M,31.304,M,1.0,0350*58
$GNGGA,130110.20,5213.25729835,N,02100.51321112,E,2,19,0.6,118.341,M,31.304,M,1.2,0350*5A
$GNGGA,130110.30,5213.25730478,N,02100.51313472,E,2,18,0.6,118.350,M,31.304,M,1.2,0350*55
$GNGGA,130110.40,5213.25731046,N,02100.51306579,E,2,19,0.6,118.328,M,31.304,M,1.4,0350*5C
$GNGGA,130110.50,5213.25730889,N,02100.51300792,E,2,19,0.6,118.322,M,31.304,M,1.4,0350*5C
$GNGGA,130110.60,5213.25730467,N,02100.51294769,E,2,19,0.6,118.298,M,31.304,M,0.6,0350*58
$GNGGA,130110.70,5213.25730213,N,02100.51288313,E,2,19,0.6,118.298,M,31.304,M,0.6,0350*58
$GNGGA,130110.80,5213.25729261,N,02100.51282539,E,2,19,0.6,118.282,M,31.304,M,0.8,0350*5B
$GNGGA,130110.90,5213.25729892,N,02100.51278485,E,2,19,0.6,118.307,M,31.304,M,0.8,0350*53
$GNGGA,130111.00,5213.25729694,N,02100.51274686,E,2,19,0.6,118.315,M,31.304,M,1.0,0350*54
$GNGGA,130111.10,5213.25729457,N,02100.51269357,E,2,18,0.6,118.322,M,31.304,M,1.0,0350*58
$GNGGA,130111.20,5213.25730080,N,02100.51262449,E,2,19,0.6,118.346,M,31.304,M,1.2,0350*5F
$GNGGA,130111.30,5213.25729807,N,02100.51256967,E,2,19,0.6,118.333,M,31.304,M,1.2,0350*55
$GNGGA,130111.40,5213.25728984,N,02100.51248057,E,2,19,0.6,118.319,M,31.304,M,0.4,0350*53
$GNGGA,130111.50,5213.25728480,N,02100.51242066,E,2,19,0.6,118.301,M,31.304,M,0.4,0350*5A
$GNGGA,130111.60,5213.25728411,N,02100.51231970,E,2,19,0.6,118.258,M,31.304,M,0.6,0350*54
$GNGGA,130111.70,5213.25729431,N,02100.51226727,E,2,19,0.6,118.251,M,31.304,M,0.6,0350*55
$GNGGA,130111.80,5213.25730185,N,02100.51219581,E,2,19,0.6,118.222,M,31.304,M,0.8,0350*50
$GNGGA,130111.90,5213.25729608,N,02100.51213619,E,2,19,0.6,118.219,M,31.304,M,0.8,0350*5B
$GNGGA,130112.00,5213.25730111,N,02100.51206973,E,2,19,0.6,118.214,M,31.304,M,1.0,0350*55
$GNGGA,130112.10,5213.25729480,N,02100.51201665,E,2,19,0.6,118.204,M,31.304,M,1.0,0350*5F
$GNGGA,130112.20,5213.25728125,N,02100.51197056,E,2,19,0.6,118.161,M,31.304,M,1.2,0350*5F
$GNGGA,130112.30,5213.25728615,N,02100.51191871,E,2,19,0.6,118.168,M,31.304,M,1.2,0350*58
$GNGGA,130112.40,5213.25728114,N,02100.51184677,E,2,19,0.6,118.166,M,31.304,M,1.4,0350*5D
$GNGGA,130112.50,5213.25728966,N,02100.51179833,E,2,19,0.6,118.179,M,31.304,M,1.4,0350*53
$GNGGA,130112.60,5213.25729975,N,02100.51173042,E,2,19,0.6,118.162,M,31.304,M,0.6,0350*5E
$GNGGA,130112.70,5213.25730364,N,02100.51167979,E,2,19,0.6,118.159,M,31.304,M,0.6,0350*51
$GNGGA,130112.80,5213.25730259,N,02100.51160264,E,2,19,0.7,118.142,M,31.304,M,0.8,0350*54
$GNGGA,130112.90,5213.25729755,N,02100.51154396,E,2,19,0.7,118.137,M,31.304,M,0.8,0350*5D
$GNGGA,130113.00,5213.25728829,N,02100.51146747,E,2,19,0.7,118.097,M,31.304,M,1.0,0350*59
$GNGGA,130113.10,5213.25729614,N,02100.51142398,E,2,18,0.7,118.109,M,31.304,M,1.0,0350*5C
$GNGGA,130113.20,5213.25729620,N,02100.51135967,E,2,19,0.7,118.093,M,31.304,M,1.2,0350*53
$GNGGA,130113.30,5213.25729242,N,02100.51129996,E,2,19,0.7,118.103,M,31.304,M,1.2,0350*59
$GNGGA,130113.40,5213.25728774,N,02100.51124788,E,2,19,0.7,118.103,M,31.304,M,1.4,0350*55
$GNGGA,130113.50,5213.25728001,N,02100.51118883,E,2,19,0.7,118.092,M,31.304,M,1.4,0350*53
$GNGGA,130113.60,5213.25726852,N,02100.51112155,E,2,19,0.7,118.082,M,31.304,M,0.6,0350*5A
$GNGGA,130113.70,5213.25726689,N,02100.51104668,E,2,19,0.7,118.040,M,31.304,M,0.6,0350*53
$GNGGA,130113.80,5213.25725673,N,02100.51093422,E,2,19,0.7,117.989,M,31.304,M,0.8,0350*54
$GNGGA,130113.90,5213.25725742,N,02100.51087505,E,2,19,0.7,117.999,M,31.304,M,0.8,0350*56
$GNGGA,130114.00,5213.25725050,N,02100.51080879,E,2,19,0.6,117.970,M,31.304,M,1.0,0350*52
$GNGGA,130114.10,5213.25724490,N,02100.51073772,E,2,18,0.6,117.965,M,31.304,M,1.0,0350*57
$GNGGA,130114.20,5213.25723420,N,02100.51063899,E,2,19,0.6,117.945,M,31.304,M,1.2,0350*52
$GNGGA,130114.30,5213.25723361,N,02100.51057803,E,2,19,0.6,117.933,M,31.304,M,1.2,0350*54
$GNGGA,130114.40,5213.25724065,N,02100.51056815,E,2,19,0.6,117.901,M,31.304,M,1.4,0350*52
$GNGGA,130114.50,5213.25724184,N,02100.51050652,E,2,19,0.6,117.873,M,31.304,M,1.4,0350*52
$GNGGA,130114.60,5213.25724440,N,02100.51047129,E,2,19,0.6,117.869,M,31.304,M,0.6,0350*59
$GNGGA,130114.70,5213.25724187,N,02100.51040562,E,2,18,0.6,117.874,M,31.304,M,0.6,0350*57
$GNGGA,130114.80,5213.25722105,N,02100.51034245,E,2,19,0.6,117.869,M,31.304,M,0.8,0350*56
$GNGGA,130114.90,5213.25722130,N,02100.51026944,E,2,18,0.6,117.867,M,31.304,M,0.8,0350*57
$GNGGA,130115.00,5213.25720230,N,02100.51016378,E,2,19,0.6,117.857,M,31.304,M,1.0,0350*53
$GNGGA,130115.10,5213.25721852,N,02100.51010149,E,2,19,0.6,117.883,M,31.304,M,1.0,0350*52
$GNGGA,130115.20,5213.25721864,N,02100.51001416,E,2,19,0.6,117.873,M,31.304,M,1.2,0350*56
$GNGGA,130115.30,5213.25722718,N,02100.50994544,E,2,18,0.6,117.889,M,31.304,M,1.2,0350*56
$GNGGA,130115.40,5213.25722519,N,02100.50986821,E,2,19,0.6,117.906,M,31.304,M,1.4,0350*5E
$GNGGA,130115.50,5213.25721930,N,02100.50979701,E,2,19,0.6,117.904,M,31.304,M,1.4,0350*54
$GNGGA,130115.60,5213.25719576,N,02100.50972739,E,2,19,0.6,117.922,M,31.304,M,0.6,0350*55
$GNGGA,130115.70,5213.25719250,N,02100.50966213,E,2,19,0.6,117.907,M,31.304,M,0.6,0350*58
$GNGGA,130115.80,5213.25717436,N,02100.50958398,E,2,19,0.6,117.895,M,31.304,M,0.8,0350*54
$GNGGA,130115.90,5213.25717484,N,02100.50950961,E,2,19,0.6,117.876,M,31.304,M,0.8,0350*55
$GNGGA,130116.00,5213.25717308,N,02100.50942981,E,2,18,0.7,117.865,M,31.304,M,1.0,0350*5A
$GNGGA,130116.10,5213.25717966,N,02100.50936139,E,2,18,0.7,117.845,M,31.304,M,1.0,0350*53
$GNGGA,130116.20,5213.25718036,N,02100.50925458,E,2,18,0.7,117.832,M,31.304,M,1.2,0350*51
$GNGGA,130116.30,5213.25718701,N,02100.50917963,E,2,17,0.7,117.823,M,31.304,M,1.2,0350*58
$GNGGA,130116.40,5213.25719253,N,02100.50910878,E,2,18,0.7,117.817,M,31.304,M,1.4,0350*5E
$GNGGA,130116.50,5213.25718713,N,02100.50903375,E,2,17,0.7,117.806,M,31.304,M,1.4,0350*54
$GNGGA,130116.60,5213.25718678,N,02100.50895339,E,2,18,0.7,117.810,M,31.304,M,1.6,0350*57
$GNGGA,130116.70,5213.25718739,N,02100.50887600,E,2,17,0.7,117.822,M,31.304,M,1.6,0350*50
$GNGGA,130116.80,5213.25719361,N,02100.50881517,E,2,18,0.7,117.800,M,31.304,M,0.8,0350*54
$GNGGA,130116.90,5213.25719645,N,02100.50874240,E,2,18,0.7,117.788,M,31.304,M,0.8,0350*56
$GNGGA,130117.00,5213.25720598,N,02100.50870009,E,2,18,0.7,117.729,M,31.304,M,1.0,0350*5E
$GNGGA,130117.10,5213.25721178,N,02100.50863138,E,2,18,0.7,117.712,M,31.304,M,1.0,0350*5D
$GNGGA,130117.20,5213.25723005,N,02100.50854771,E,2,18,0.7,117.703,M,31.304,M,1.2,0350*5A
$GNGGA,130117.30,5213.25724100,N,02100.50847576,E,2,18,0.7,117.703,M,31.304,M,1.2,0350*5F
$GNGGA,130117.40,5213.25725448,N,02100.50834870,E,2,18,0.7,117.721,M,31.304,M,0.4,0350*58
$GNGGA,130117.50,5213.25726161,N,02100.50827297,E,2,18,0.7,117.714,M,31.304,M,0.4,0350*53
$GNGGA,130117.60,5213.25727465,N,02100.50820794,E,2,18,0.7,117.732,M,31.304,M,0.6,0350*57
$GNGGA,130117.70,5213.25727020,N,02100.50814273,E,2,18,0.7,117.745,M,31.304,M,0.6,0350*58
$GNGGA,130117.80,5213.25727373,N,02100.50803049,E,2,18,0.7,117.727,M,31.304,M,0.8,0350*55
$GNGGA,130117.90,5213.25727356,N,02100.50795495,E,2,17,0.7,117.715,M,31.304,M,0.8,0350*58
$GNGGA,130118.00,5213.25727323,N,02100.50785930,E,2,18,0.7,117.695,M,31.304,M,1.0,0350*50
$GNGGA,130118.10,5213.25728236,N,02100.50778677,E,2,17,0.7,117.694,M,31.304,M,1.0,0350*5B
$GNGGA,130118.20,5213.25728991,N,02100.50774462,E,2,18,0.7,117.652,M,31.304,M,1.2,0350*53
$GNGGA,130118.30,5213.25729192,N,02100.50767474,E,2,16,0.7,117.649,M,31.304,M,1.2,0350*59
$GNGGA,130118.40,5213.25730232,N,02100.50762571,E,2,18,0.7,117.636,M,31.304,M,1.4,0350*5E
$GNGGA,130118.50,5213.25729500,N,02100.50754709,E,2,17,0.7,117.615,M,31.304,M,1.4,0350*57
$GNGGA,130118.60,5213.25724556,N,02100.50745354,E,2,18,0.7,117.604,M,31.304,M,0.6,0350*5A
$GNGGA,130118.70,5213.25724134,N,02100.50738292,E,2,18,0.7,117.609,M,31.304,M,0.6,0350*57
$GNGGA,130118.80,5213.25725383,N,02100.50730858,E,2,18,0.7,117.570,M,31.304,M,0.8,0350*50
$GNGGA,130118.90,5213.25725124,N,02100.50723631,E,2,18,0.7,117.558,M,31.304,M,0.8,0350*57
$GNGGA,130119.00,5213.25726678,N,02100.50715058,E,2,18,0.7,117.516,M,31.304,M,1.0,0350*5D
$GNGGA,130119.10,5213.25726489,N,02100.50708077,E,2,18,0.7,117.518,M,31.304,M,1.0,0350*5F
$GNGGA,130119.20,5213.25726903,N,02100.50698782,E,2,18,0.7,117.466,M,31.304,M,1.2,0350*5C
$GNGGA,130119.30,5213.25727465,N,02100.50692327,E,2,18,0.7,117.444,M,31.304,M,1.2,0350*50
$GNGGA,130119.40,5213.25727645,N,02100.50682675,E,2,18,0.7,117.414,M,31.304,M,0.4,0350*56
$GNGGA,130119.50,5213.25727892,N,02100.50675598,E,2,18,0.7,117.422,M,31.304,M,0.4,0350*5E
$GNGGA,130119.60,5213.25728186,N,02100.50665677,E,2,19,0.6,117.387,M,31.304,M,0.6,0350*57
$GNGGA,130119.70,5213.25727624,N,02100.50659147,E,2,19,0.6,117.399,M,31.304,M,0.6,0350*52
$GNGGA,130119.80,5213.25724360,N,02100.50650184,E,2,19,0.6,117.383,M,31.304,M,0.8,0350*58
$GNGGA,130119.90,5213.25724651,N,02100.50643263,E,2,19,0.6,117.377,M,31.304,M,0.8,0350*5D
$GNGGA,130120.00,5213.25725270,N,02100.50633484,E,2,18,0.7,117.335,M,31.304,M,1.0,0350*5F
$GNGGA,130120.10,5213.25725789,N,02100.50626042,E,2,17,0.7,117.338,M,31.304,M,1.0,0350*55
$GNGGA,130120.20,5213.25727265,N,02100.50617551,E,2,18,0.7,117.310,M,31.304,M,1.2,0350*51
$GNGGA,130120.30,5213.25727419,N,02100.50610938,E,2,17,0.7,117.302,M,31.304,M,1.2,0350*55
$GNGGA,130120.40,5213.25728135,N,02100.50602101,E,2,17,0.7,117.277,M,31.304,M,1.4,0350*52
$GNGGA,130120.50,5213.25727724,N,02100.50594352,E,2,17,0.7,117.271,M,31.304,M,1.4,0350*54
$GNGGA,130120.60,5213.25727028,N,02100.50586297,E,2,17,0.7,117.239,M,31.304,M,0.6,0350*58
$GNGGA,130120.70,5213.25744783,N,02100.50475743,E,5,06,2.2,115.577,M,31.304,M,0.7,0350*55
$GNGGA,130120.80,5213.25745293,N,02100.50467659,E,5,06,2.2,115.738,M,31.304,M,0.8,0350*50
$GNGGA,130120.90,5213.25744031,N,02100.50458115,E,5,06,2.2,115.623,M,31.304,M,0.9,0350*53
$GNGGA,130121.00,5213.25746075,N,02100.50449455,E,5,06,2.2,115.573,M,31.304,M,1.0,0350*56
$GNGGA,130121.10,5213.25747533,N,02100.50441924,E,5,06,2.2,115.585,M,31.304,M,1.1,0350*5A
$GNGGA,130121.20,5213.25748567,N,02100.50433286,E,5,06,2.2,115.573,M,31.304,M,1.2,0350*5B
$GNGGA,130121.30,5213.25747475,N,02100.50426013,E,5,06,2.2,115.615,M,31.304,M,1.3,0350*5F
$GNGGA,130121.40,5213.25757686,N,02100.50480132,E,5,08,1.8,116.695,M,31.304,M,0.4,0350*53
$GNGGA,130121.50,5213.25758275,N,02100.50471999,E,5,08,1.8,116.737,M,31.304,M,0.5,0350*5A
$GNGGA,130121.60,5213.25760717,N,02100.50465396,E,5,08,1.8,116.691,M,31.304,M,0.6,0350*5D
$GNGGA,130121.70,5213.25757227,N,02100.50459289,E,5,08,1.8,116.758,M,31.304,M,0.7,0350*5B
$GNGGA,130121.80,5213.25759363,N,02100.50452941,E,5,08,1.8,116.711,M,31.304,M,0.8,0350*5D
$GNGGA,130121.90,5213.25759297,N,02100.50441645,E,5,08,1.8,116.728,M,31.304,M,0.9,0350*54
$GNGGA,130122.00,5213.25759248,N,02100.50433015,E,5,08,1.8,116.703,M,31.304,M,1.0,0350*5B
$GNGGA,130122.10,5213.25760855,N,02100.50426842,E,5,08,1.8,116.710,M,31.304,M,1.1,0350*5B
$GNGGA,130122.20,5213.25760395,N,02100.50421652,E,5,08,1.8,116.733,M,31.304,M,1.2,0350*55
$GNGGA,130122.30,5213.25762144,N,02100.50411792,E,5,08,1.8,116.758,M,31.304,M,1.3,0350*5A
$GNGGA,130122.40,5213.25760223,N,02100.50401811,E,5,08,1.8,116.723,M,31.304,M,1.4,0350*53
$GNGGA,130122.50,5213.25762483,N,02100.50396088,E,5,08,1.8,116.740,M,31.304,M,1.5,0350*59
$GNGGA,130122.60,5213.25758914,N,02100.50388749,E,5,10,1.8,116.760,M,31.304,M,1.6,0350*5D
$GNGGA,130122.70,5213.25758802,N,02100.50362770,E,5,10,1.8,117.139,M,31.304,M,0.7,0350*5F
$GNGGA,130122.80,5213.25758487,N,02100.50353566,E,5,10,1.8,117.116,M,31.304,M,0.8,0350*54
$GNGGA,130122.90,5213.25752117,N,02100.50340003,E,5,10,1.8,117.122,M,31.304,M,0.9,0350*51
$GNGGA,130123.00,5213.25755183,N,02100.50336243,E,5,10,1.8,117.099,M,31.304,M,1.0,0350*5D
$GNGGA,130123.10,5213.25756386,N,02100.50328559,E,5,10,1.8,117.110,M,31.304,M,1.1,0350*5A
$GNGGA,130123.20,5213.25757635,N,02100.50321824,E,5,10,1.8,117.101,M,31.304,M,1.2,0350*58
$GNGGA,130123.30,5213.25761575,N,02100.50319796,E,5,10,1.8,117.419,M,31.304,M,1.3,0350*5B
$GNGGA,130123.40,5213.25756525,N,02100.50303122,E,5,10,1.8,117.128,M,31.304,M,1.4,0350*5F
$GNGGA,130123.50,5213.25761207,N,02100.50297770,E,5,10,1.8,117.170,M,31.304,M,1.5,0350*5C
$GNGGA,130123.60,5213.25764521,N,02100.50297901,E,5,10,1.8,117.476,M,31.304,M,0.6,0350*50
$GNGGA,130123.70,5213.25759375,N,02100.50287174,E,5,10,1.8,117.184,M,31.304,M,0.7,0350*5A
$GNGGA,130123.80,5213.25760009,N,02100.50278487,E,5,10,1.8,117.172,M,31.304,M,0.8,0350*58
$GNGGA,130123.90,5213.25759403,N,02100.50270607,E,5,09,2.6,117.129,M,31.304,M,0.9,0350*55
$GNGGA,130124.00,5213.25766310,N,02100.50261951,E,5,09,2.6,117.289,M,31.304,M,1.0,0350*5F
$GNGGA,130124.10,5213.25765028,N,02100.50253508,E,5,09,2.6,117.202,M,31.304,M,1.1,0350*56
$GNGGA,130124.20,5213.25765279,N,02100.50247297,E,5,09,2.6,117.177,M,31.304,M,1.2,0350*55
$GNGGA,130124.30,5213.25767911,N,02100.50236800,E,5,09,2.6,117.206,M,31.304,M,1.3,0350*55
$GNGGA,130124.40,5213.25766630,N,02100.50228992,E,5,09,2.6,117.212,M,31.304,M,1.4,0350*58
$GNGGA,130124.50,5213.25766522,N,02100.50221670,E,5,09,2.6,117.241,M,31.304,M,1.5,0350*54
$GNGGA,130124.60,5213.25774116,N,02100.50268323,E,5,06,2.9,118.337,M,31.304,M,0.6,0350*54
$GNGGA,130124.70,5213.25773420,N,02100.50260852,E,5,06,2.9,118.339,M,31.304,M,0.7,0350*58
$GNGGA,130124.80,5213.25772833,N,02100.50252362,E,5,06,2.9,118.374,M,31.304,M,0.8,0350*57
$GNGGA,130124.90,5213.25773913,N,02100.50241082,E,5,06,2.9,118.338,M,31.304,M,0.9,0350*52
$GNGGA,130125.00,5213.25775575,N,02100.50232919,E,5,06,2.9,118.438,M,31.304,M,1.0,0350*50
$GNGGA,130125.10,5213.25774873,N,02100.50226476,E,5,06,2.9,118.480,M,31.304,M,1.1,0350*58
$GNGGA,130125.20,5213.25774242,N,02100.50219722,E,5,06,2.9,118.427,M,31.304,M,1.2,0350*53
$GNGGA,130125.30,5213.25776563,N,02100.50211021,E,5,08,2.4,118.310,M,31.304,M,1.3,0350*59
$GNGGA,130125.40,5213.25776217,N,02100.50201936,E,5,08,2.4,118.446,M,31.304,M,1.4,0350*57
$GNGGA,130125.50,5213.25698610,N,02100.50176050,E,2,18,0.7,116.199,M,31.304,M,1.4,0350*50
$GNGGA,130125.60,5213.25693409,N,02100.50166933,E,2,18,0.7,116.169,M,31.304,M,0.6,0350*53
$GNGGA,130125.70,5213.25693671,N,02100.50159775,E,2,18,0.7,116.169,M,31.304,M,0.6,0350*5F
$GNGGA,130125.80,5213.25689068,N,02100.50149229,E,2,18,0.7,116.133,M,31.304,M,0.8,0350*59
$GNGGA,130125.90,5213.25689498,N,02100.50141112,E,2,18,0.7,116.110,M,31.304,M,0.8,0350*51
$GNGGA,130126.00,5213.25685966,N,02100.50130144,E,2,18,0.7,116.068,M,31.304,M,1.0,0350*59
$GNGGA,130126.10,5213.25686795,N,02100.50124452,E,2,18,0.7,116.077,M,31.304,M,1.0,0350*50
$GNGGA,130126.20,5213.25686121,N,02100.50113428,E,2,18,0.7,116.050,M,31.304,M,1.2,0350*54
$GNGGA,130126.30,5213.25685048,N,02100.50103926,E,2,18,0.7,116.082,M,31.304,M,1.2,0350*55
$GNGGA,130126.40,5213.25683808,N,02100.50092619,E,2,18,0.7,116.090,M,31.304,M,1.4,0350*57
$GNGGA,130126.50,5213.25683771,N,02100.50086895,E,2,18,0.7,116.093,M,31.304,M,1.4,0350*5B
$GNGGA,130126.60,5213.25646375,N,02100.49935057,E,5,05,3.9,119.074,M,31.304,M,0.6,0350*5D
$GNGGA,130126.70,5213.25645820,N,02100.49925374,E,5,05,3.9,119.083,M,31.304,M,0.7,0350*5E
$GNGGA,130126.80,5213.25647126,N,02100.49917696,E,5,05,3.9,119.096,M,31.304,M,0.8,0350*5F
$GNGGA,130126.90,5213.25647699,N,02100.49909483,E,5,05,3.9,119.091,M,31.304,M,0.9,0350*52
$GNGGA,130127.00,5213.25646809,N,02100.49901665,E,5,05,3.9,119.119,M,31.304,M,1.0,0350*57
$GNGGA,130127.10,5213.25647321,N,02100.49893328,E,5,05,3.9,119.111,M,31.304,M,1.1,0350*59
$GNGGA,130127.20,5213.25647965,N,02100.49884247,E,5,05,3.9,119.107,M,31.305,M,1.2,0350*5B
$GNGGA,130127.30,5213.25647659,N,02100.49873011,E,5,05,3.9,119.085,M,31.305,M,1.3,0350*59
$GNGGA,130127.40,5213.25646732,N,02100.49864858,E,5,05,3.9,119.126,M,31.305,M,1.4,0350*5F
$GNGGA,130127.50,5213.25646837,N,02100.49857369,E,5,05,3.9,119.122,M,31.305,M,1.5,0350*58
